ID_UC_G0,city,country,lat,lon,min_lon,min_lat,max_lon,max_lat
47,﻿Freetown,﻿Sierra Leone,8.418843693285334,-13.18192120588291,-13.300999071428,8.309124885475505,-13.016169287429774,8.504033890242995
50,﻿Monrovia,﻿Liberia,6.323709647854393,-10.731030455571963,-10.826633519058733,6.20790523114538,-10.584843944576917,6.4592120004744595
70,﻿Turin,﻿Italy,45.07001346242886,7.646069097114066,7.496263353924159,44.97009218245283,7.788359653590954,45.15452147121113
75,﻿Gothenburg,﻿Sweden,57.702447622770656,11.964435422215194,11.80828816971995,57.604813584928216,12.129534242895085,57.82964804532136
85,﻿Pointe-Noire,﻿Republic of the Congo,-4.781282051724759,11.89246753413604,11.819039692314941,-4.871031472999743,11.958508440235763,-4.6766685623618445
102,﻿Riga,﻿Latvia,56.96327187938828,24.11424800512373,23.985969557152465,56.88262375910192,24.229809817682064,57.055074894338276
109,﻿Sofia,﻿Bulgaria,42.682224330079144,23.323013488458102,23.21277251462194,42.61005471632966,23.435916864601683,42.75541981573667
127,﻿Khan Yunis,﻿Palestine,31.323861590718966,34.30197938418016,34.23862995032879,31.25154518451879,34.360311625749056,31.388939455148147
129,﻿Latakia,﻿Syria,35.53395149097303,35.802039819898376,35.740309737436746,35.4959056696806,35.86747789972894,35.57461885701807
134,﻿Tabuk,﻿Saudi Arabia,28.403534041442196,36.55434780104488,36.49679809302414,28.349020493659392,36.62644924077911,28.459425730923492
159,﻿Port Louis,﻿Mauritius,-20.22842419684426,57.49031847620781,57.41899359377385,-20.33485408218825,57.546315238251275,-20.119397822484
173,﻿Chiang Mai,﻿Thailand,18.772892205020895,99.00146792297433,98.90910111699698,18.67208199105126,99.10281077065119,18.86202359081049
212,﻿La Paz,﻿Bolivia,-16.52309932361905,-68.16700449122006,-68.29018006052104,-16.637195011711878,-68.01419178701657,-16.43992886806315
213,﻿Bayamón [San Juan],﻿Puerto Rico,18.398035755250426,-66.0971584544942,-66.24198351822916,18.341941390733815,-65.94752990171209,18.46571568576482
217,﻿Asuncion,﻿Paraguay,-25.31931003778461,-57.542153431905355,-57.67685892854353,-25.43421929088161,-57.432930246330585,-25.1820689590925
222,﻿Nouakchott,﻿Mauritania,18.074214290059466,-15.95928647025618,-16.031697654827916,17.97082024629174,-15.882467159450332,18.152219689429298
231,﻿Lisbon,﻿Portugal,38.763440424889055,-9.226870224605278,-9.452987130165285,38.65931903522528,-9.00206660065733,38.93487455961863
244,﻿Rotterdam [The Hague],﻿Netherlands,51.970720274185304,4.381238468362162,4.118670833560272,51.82278961233404,4.632450674558161,52.12348698419704
255,﻿Bata,﻿Equatorial Guinea,1.8446647731659795,9.78611043158142,9.7313577866304,1.7955773694348254,9.831359983673858,1.9088275576793692
258,﻿Tripoli,﻿Libya,32.83859270524565,13.19603334677921,12.923171336911428,32.749866150000436,13.409111810715904,32.92268782339836
291,﻿Alexandria,﻿Egypt,31.17827387652551,29.966676321093903,29.647706261400643,31.037017615599115,30.224689590204484,31.3374077247164
295,﻿Bujumbura,﻿Burundi,-3.3816041086731943,29.368871636147322,29.295535777245902,-3.4947076910302273,29.436580798624057,-3.300472488539701
299,﻿Maputo,﻿Mozambique,-25.854950216618782,32.55012420759602,32.40178930488123,-25.989659482726996,32.6919333024514,-25.694985324978926
312,﻿Yerevan,﻿Armenia,40.172466719411496,44.49714975866683,44.38428167912878,40.08591416696151,44.61126729828926,40.23814006094316
325,﻿Abu Dhabi,﻿United Arab Emirates,24.463820885740947,54.377288492517195,54.30405778411694,24.41003160745452,54.46652270312838,24.527398328948287
337,﻿Ulaanbaatar,﻿Mongolia,47.92601008326859,106.87480125866814,106.6870850512503,47.854717568308885,107.10733692222223,48.00517737946654
348,﻿Seoul,﻿South Korea,37.47326755904677,126.93320335524537,126.5741847642868,37.10225569298145,127.25500919601438,37.773110927729725
351,﻿Sapporo,﻿Japan,43.06860355378234,141.37641417588372,141.18339020620814,42.95550485302952,141.58175968424538,43.174056525591496
358,﻿Vancouver,﻿Canada,49.23328135040569,-122.97424434105287,-123.24348315118971,49.100949526902134,-122.71873268371326,49.366778690842175
362,﻿Managua,﻿Nicaragua,12.122375762564511,-86.25997465508354,-86.37622844106329,12.027920570951066,-86.14544492226366,12.182914857857172
363,﻿San José,﻿Costa Rica,9.957381517349273,-84.12018321545172,-84.29171155809483,9.845108437362281,-83.96753620573446,10.04847638098516
367,﻿Havana,﻿Cuba,23.080821058632505,-82.37411593215994,-82.49901839433215,22.963056715511804,-82.24389467098513,23.180135476152905
391,﻿Bamako,﻿Mali,12.61786214905276,-7.976569462481714,-8.122845386604451,12.501170003544518,-7.821156300777909,12.746083458146847
394,﻿Dublin,﻿Ireland,53.326378519560556,-6.27184436907126,-6.4763124455676975,53.225995977004054,-6.068756318221013,53.41239010556693
419,﻿Zagreb,﻿Croatia,45.807289658613406,15.991322330781129,15.828635639877541,45.75546090905592,16.144338767272064,45.85739526085816
424,﻿N'Djamena,﻿Chad,12.130149879496466,15.064463266866865,14.95397616178282,12.036077309462105,15.165589360158636,12.215549629767738
427,﻿Brazzaville,﻿Republic of the Congo,-4.243927160033448,15.254562091596497,15.162778417156439,-4.328486104368461,15.321803402604376,-4.150370273365366
431,﻿Cape Town,﻿South Africa,-33.958972657940926,18.58375797191506,18.36988364913378,-34.10999590918447,18.76360602337281,-33.8060821406739
456,﻿Gaza,﻿Palestine,31.52298969924079,34.474261389410046,34.406595472477306,31.47484943161411,34.548646292947865,31.569384831077727
457,﻿Tel Aviv,﻿Israel,32.078425244717714,34.831560789890055,34.719053130202006,31.930672696400155,34.942982034511225,32.19768144089672
461,﻿Lilongwe,﻿Malawi,-13.963878925422561,33.779574751680315,33.722858003404454,-14.053863678057834,33.852256297033705,-13.865700913134448
467,﻿Tbilisi,﻿Georgia,41.72356382066143,44.820550813788344,44.708630063833574,41.62307743026403,44.93227160055561,41.812784794845946
472,﻿Hodeidah,﻿Yemen,14.802326598998706,42.96305536081438,42.92110992639178,14.757959607527422,43.0311673803846,14.848080321521204
474,﻿Djibouti,﻿Djibouti,11.570880894654424,43.12669866849313,43.055989016465645,11.538686945888148,43.17879736897916,11.62835494511115
475,﻿Kuwait City,﻿Kuwait,29.25194313410764,48.01151181893818,47.78601888719139,28.99508970900576,48.18926719087831,29.39539629257692
498,﻿Perth,﻿Australia,-31.938434808464198,115.84597321295439,115.70579480569425,-32.13736339028922,116.01709666683598,-31.6897550146525
501,﻿Hsinchu,﻿Taiwan,24.82072644540258,120.9990408006502,120.90180793706409,24.753866397513303,121.0721736532456,24.921721571998592
507,﻿Tijuana,﻿México,32.4944035737109,-116.9659458173871,-117.13845945958262,32.43047858735478,-116.79018014833558,32.55127745240817
511,﻿San Pedro Sula,﻿Honduras,15.510206694544001,-87.9878942833765,-88.06094353142612,15.372706826972296,-87.91960535443125,15.67623561580746
526,﻿Salta,﻿Argentina,-24.801682948681158,-65.41664487859778,-65.47827988729449,-24.871355936485884,-65.35543284785022,-24.711916083767168
548,﻿Niamey,﻿Niger,13.523177399612766,2.1207641575930922,2.020422650963589,13.440502914898621,2.212905746034924,13.61218226840412
560,﻿Prague,﻿Czechia,50.07247032511373,14.44663148349657,14.274329387932585,49.98594480680599,14.60139698141621,50.15792484255159
564,﻿Cabinda,﻿Angola,-5.578266072347326,12.213282138258597,12.158518286190752,-5.6487070411374605,12.298302852800067,-5.510966104695663
572,﻿Helsinki,﻿Finland,60.21272542828013,24.910296797877596,24.607016289162495,60.128222071078135,25.210091444665352,60.338108411901025
573,﻿Belgrade,﻿Serbia,44.786900981386985,20.449057137145775,20.308520990031678,44.69386065301843,20.584398137884946,44.87796025385504
582,﻿Bangui,﻿Central African Republic,4.387421612240893,18.53862609016032,18.491314867687414,4.320389586957109,18.592504005631618,4.482326309175135
585,﻿Thessaloniki,﻿Greece,40.642773117103474,22.932655592546634,22.837126365819326,40.55195090019819,23.00705686595298,40.713553422796544
586,﻿Saint Petersburg,﻿Russia,59.92329892121459,30.331927216462617,30.066918129391993,59.772521777548235,30.570784377083907,60.08630302341872
597,﻿Kigali,﻿Rwanda,-1.9554702542553977,30.10846397103213,30.003723162005382,-2.038259854190806,30.253795427815444,-1.8602914226161624
611,﻿Zakho,﻿Iraq,37.148156330651524,42.6678034384537,42.55211641395548,37.11106814827312,42.73898670411292,37.18158167028813
632,﻿Colombo [Sri Jayawardenepura Kotte],﻿Sri Lanka,6.921375177351907,79.94790925601593,79.80990305189616,6.410568309159282,80.12547261471983,7.28643990714433
645,﻿Dagupan [Lingayen],﻿Philippines,16.031053593250807,120.36236940940864,120.16982305970048,15.938885902863454,120.53180436077774,16.168812570803475
658,﻿Panama City,﻿Panama,9.06225791822565,-79.47458852971026,-79.61681941423802,8.942719290822632,-79.31289823206814,9.170264822192962
666,﻿Cochabamba,﻿Bolivia,-17.403152641949276,-66.17281243643932,-66.34711971137891,-17.501159178073284,-65.97922089497402,-17.32001100779516
683,﻿Glasgow,﻿United Kingdom,55.856530500453054,-4.303787132926819,-4.53942899473438,55.763613149566396,-4.096181115702726,55.95431229630456
693,﻿Essen,﻿Germany,51.4902780280278,6.968202748745017,6.585665264187112,51.34899160150169,7.289967975664343,51.629182887818665
724,﻿Minsk,﻿Belarus,53.89192378966953,27.573465173194062,27.40433168238876,53.80578340241201,27.730643112218708,53.963519356101216
749,﻿Medina,﻿Saudi Arabia,24.45883691615691,39.60511363107722,39.47263235309226,24.368124977530815,39.73059697203688,24.56932510640068
769,﻿Chapainawabganj,﻿Bangladesh,24.66433122189034,88.18541273794845,88.07114979609035,24.56093932491418,88.3202038443132,24.770648028862396
792,﻿Guayaquil,﻿Ecuador,-2.156672758581999,-79.90671111931634,-80.02609861477453,-2.2971366617105335,-79.77706748058364,-2.038259854190806
795,﻿Kingston,﻿Jamaica,18.010858067291508,-76.79697603665853,-76.85961262450786,17.962576510824505,-76.72942632182311,18.06975654011564
798,﻿Santiago de los Caballeros,﻿Dominican Republic,19.457976389266747,-70.69330643014185,-70.76149445860166,19.407532249484643,-70.61948133964239,19.51506252391495
804,﻿Montevideo,﻿Uruguay,-34.86094335915689,-56.17130918427648,-56.304762803891926,-34.93699797270411,-56.01913229393105,-34.77134921117593
810,﻿Agadir,﻿Morocco,30.39283443033338,-9.53395165150128,-9.657367546587519,30.343192658648338,-9.39078670597618,30.454420743443638
820,﻿Lomé,﻿Togo,6.201325526161275,1.2257236342948596,1.0814655163716316,6.110637619408635,1.4520639157989308,6.2970732486840095
826,﻿Dusseldorf,﻿Germany,51.21386197642626,6.775536783439299,6.588769520532124,51.06942969095046,6.927097426040786,51.32004236818734
828,﻿Oslo,﻿Norway,59.91519005074952,10.78403729704031,10.538953170415903,59.772521777548235,11.0798642995182,59.99205563042249
832,﻿Douala,﻿Cameroon,4.053167286839355,9.736803355486591,9.59377038418658,3.9641747125741817,9.83306744952733,4.134178698222138
879,﻿Urmia,﻿Iran,37.54963402469631,45.056582826414555,44.987682610729216,37.49919969984617,45.12934320469695,37.605184910491054
906,﻿Taichung,﻿Taiwan,24.165510806375995,120.66964018362157,120.56495823880753,24.049806139920673,120.75637406473527,24.275948941775862
907,﻿Fukuoka,﻿Japan,33.60302309564128,130.44001909168966,130.17393278737902,33.42459490874221,130.6068763771514,33.82343764268744
964,﻿Budapest,﻿Hungary,47.487549288832234,19.090467069209193,18.92193501456791,47.366832419363014,19.24006665283626,47.62933026009797
992,﻿Amman,﻿Jordan,31.977887603781383,35.94702882380724,35.799273720673426,31.82739319680658,36.14947828390463,32.145979331850135
1007,﻿Dubai,﻿United Arab Emirates,25.20221957829861,55.31741243884235,55.03047291744394,24.93011660379285,55.583020371348475,25.451036414434718
1008,﻿Seeb,﻿Oman,23.644460302734906,58.17469922492645,58.081494228906664,23.589610938038227,58.281629954396195,23.698328492137822
1016,﻿Galle,﻿Sri Lanka,6.015542121153574,80.33413839866232,80.07776118871676,5.916122594475793,80.62838770478413,6.175481935001393
1027,﻿Kitakyushu,﻿Japan,33.895778525701964,130.8430347881446,130.6477254524518,33.736673389415074,131.0386004116857,34.0404937893525
1028,﻿Baguio,﻿Philippines,16.41792138173399,120.59765945681981,120.53982560210862,16.357757268969593,120.6492886120614,16.472801220758644
1029,﻿Adelaide,﻿Australia,-34.87897764861337,138.59106530462137,138.45940416181597,-35.05040916835989,138.74071085666642,-34.71906511211385
1058,﻿Porto,﻿Portugal,41.15994826104718,-8.604457313931722,-8.718696459599322,40.99221366330926,-8.452287548688158,41.27131492860767
1063,﻿Takoradi,﻿Ghana,4.939042123762709,-1.746589996145211,-1.8500682118844702,4.871031472999743,-1.6502357032764992,5.033016970453884
1069,﻿Antwerp,﻿Belgium,51.21909991727877,4.383066573692197,4.184241310057327,51.040545063352134,4.530014975113058,51.35864284215289
1081,﻿Vienna,﻿Austria,48.19524275644841,16.3757672465971,16.204028818112572,48.04281769958124,16.543886027300875,48.30658611333472
1082,﻿Luanda,﻿Angola,-8.915014223114197,13.29932705397705,13.060758532858124,-9.097119165851849,13.48847426113558,-8.747723625582164
1088,﻿Benghazi,﻿Libya,32.10498432730919,20.106015740226155,20.019720063233923,32.042608286683794,20.202514404179603,32.18906365310198
1094,﻿Izmir,﻿Turkey,38.42623807943367,27.13677215775647,26.985379809475567,38.286617985410146,27.290200315928583,38.5616369314104
1104,﻿Nimule,﻿South Sudan,3.591831015379252,32.066101228801735,32.037558190216174,3.5675498176125298,32.08768334105178,3.608018618549196
1112,﻿Jeddah,﻿Saudi Arabia,21.50183143087354,39.22274322300054,39.07938184109838,21.280917048330334,39.39308675898919,21.72153665552779
1121,﻿Ashgabat,﻿Turkmenistan,37.939362734768096,58.391570774890354,58.314744558122584,37.87039666484693,58.48216553514854,38.020842291123834
1124,﻿Muscat,﻿Oman,23.593402494180378,58.45550654745803,58.33460929359187,23.522724856562895,58.58963418354607,23.648146892909732
1142,﻿Taipei,﻿Taiwan,25.014997498228116,121.42134328399412,121.10615116128358,24.820998095463935,121.8126578118559,25.215677509307056
1147,﻿Auckland,﻿New Zealand,-36.89188260493239,174.7856945673548,174.5714134425692,-37.0846319373548,174.98911422984304,-36.688501983965836
1156,﻿Trujillo,﻿Peru,-8.089725494931383,-79.03315524499756,-79.07947722662387,-8.154848250455524,-78.97712681970471,-8.016830586875507
1158,﻿Cali,﻿Colombia,3.4305291548798023,-76.52027985879282,-76.58585889325549,3.3247510757406715,-76.45320306503854,3.52708169934819
1162,﻿Valparaíso,﻿Chile,-33.039362740733864,-71.50762671574994,-71.66729723015278,-33.07833625059702,-71.32662219627869,-32.983205461992675
1186,﻿Cologne,﻿Germany,50.976210779859635,6.97358433413848,6.785593408651018,50.89622121455938,7.165620382003281,51.079059375579796
1195,﻿Benguela,﻿Angola,-12.61217942645944,13.398067333224684,13.350064186426714,-12.66443566894671,13.442549797539145,-12.550145538420713
1209,﻿Damanhur,﻿Egypt,31.038271978916768,30.46728195154877,30.412941719800372,31.002710189020572,30.516887224827453,31.079908470095067
1236,﻿Dushanbe,﻿Tajikistan,38.54970315596601,68.76945375842027,68.67113372345413,38.45513137505915,68.91624970284269,38.65043678218059
1262,﻿Calgary,﻿Canada,51.03193786311985,-114.0687490521463,-114.26888728590723,50.867376236069916,-113.90357405438408,51.175396887414486
1268,﻿Maracaibo,﻿Venezuela,10.635144212230614,-71.65409432748876,-71.74666914993101,10.50419976347885,-71.57816712777515,10.74844237284339
1269,﻿Port-au-Prince,﻿Haiti,18.56307795574528,-72.29788235275795,-72.47306725909584,18.46571568576482,-72.18864971301362,18.67208199105126
1284,﻿Kumasi,﻿Ghana,6.695833415884559,-1.612802954064644,-1.7735541819106988,6.58082909208303,-1.4329009061569564,6.79976874149672
1285,﻿Bordeaux,﻿France,44.83933978099568,-0.5926848865278551,-0.7048347320275101,44.758270682590705,-0.4820615151173905,44.92401934974198
1289,﻿Lagos,﻿Nigeria,6.580084812629831,3.311992093921501,3.095269132958446,6.410568309159282,3.676294526036578,6.864647029152912
1290,﻿Brussels,﻿Belgium,50.85422541019736,4.374025783153879,4.242110638481854,50.77127374089392,4.519607467580712,50.953930934337194
1313,﻿Kebkabiya,﻿Sudan,13.650145386295636,24.0869723026077,24.048677309941496,13.628535156334582,24.120800365617544,13.669419269436585
1351,﻿Ipoh,﻿Malaysia,4.609803347202271,101.09774896347855,101.02449317505068,4.514715286910799,101.18230452399183,4.7252573195476595
1362,﻿Mexicali,﻿México,32.617314108218984,-115.44269372436807,-115.55659232036429,32.55127745240817,-115.32502987271279,32.67213770184744
1365,﻿Tegucigalpa,﻿Honduras,14.07984781003085,-87.20623088061394,-87.2727156756703,13.996590530102917,-87.13335853135465,14.15205897216954
1375,﻿Santa Cruz de la Sierra,﻿Bolivia,-17.79936720650404,-63.155429906732266,-63.269949428018656,-17.896631900815773,-63.055746702061995,-17.674137626629953
1377,﻿Manaus,﻿Brazil,-3.064900907647536,-59.996057909098674,-60.090177894953776,-3.1548056794080708,-59.9092954522082,-2.960595368119644
1396,﻿Bonn,﻿Germany,50.784071007035294,7.094020398089867,6.9389267590503865,50.64644914269251,7.269361098836375,50.91545485765869
1399,﻿Tunis,﻿Tunisia,36.81286920043298,10.209719389905546,10.046221540877335,36.65332767056529,10.381693775524159,36.97011498249339
1402,﻿Poznan,﻿Poland,52.400865453533676,16.910243324653962,16.776594573814123,52.317881448706565,17.05541857007978,52.48336379128108
1419,﻿Harare,﻿Zimbabwe,-17.865186711449944,31.03201733319044,30.868658467482355,-18.053265684717463,31.183502827276286,-17.72357167384263
1432,﻿Tabriz,﻿Iran,38.06323258464799,46.279175958195424,46.11992268410605,38.01198934562087,46.44284713995258,38.127108984872415
1446,﻿Kandy,﻿Sri Lanka,7.292493313315467,80.61773573042207,80.50974001434597,7.180977782819853,80.75580424894167,7.416252506435366
1459,﻿Point Cook,﻿Australia,-37.87946175369649,144.70592790638548,144.5847437785375,-37.923481927258415,144.81379220279558,-37.826169909006694
1461,﻿San Francisco,﻿United States,37.55649045057582,-122.13328653465904,-122.52800530126363,37.19921391187867,-121.73426544735176,38.020842291123834
1476,﻿San Miguel de Tucumán,﻿Argentina,-26.823863552492586,-65.21811135636784,-65.32540406635039,-26.89227881257323,-65.11898670064463,-26.757136214925485
1498,﻿Milan,﻿Italy,45.54447176387791,9.186883206891142,8.97847482879557,45.357650354951424,9.428724923002147,45.75546090905592
1526,﻿Torit,﻿South Sudan,4.407766493532499,32.57162539297549,32.52732340352952,4.385162658567969,32.59751589569259,4.42564691861201
1530,﻿Mosul,﻿Iraq,36.34521677923828,43.13885292749525,43.02003501648874,36.29313734364929,43.234498610498655,36.407275982746036
1537,﻿Al Ain,﻿United Arab Emirates,24.20434732958024,55.71318586254828,55.60132493012588,24.108421156833963,55.81935313005188,24.301085335815454
1564,﻿Edmonton,﻿Canada,53.538744171661705,-113.51437343865832,-113.70302260149046,53.40257243091086,-113.34443794365768,53.66794271797552
1588,﻿Cotonou,﻿Benin,6.416372824482252,2.3645550183382134,2.173444456732825,6.337606099325225,2.6442420380664937,6.58082909208303
1589,﻿Abeokuta,﻿Nigeria,7.163776728447558,3.344755245463945,3.258355680653646,7.099859450715399,3.4591738038593562,7.237763908080203
1590,﻿Amsterdam,﻿Netherlands,52.35436657868384,4.85276802015887,4.704582457550596,52.220645115024055,5.020592128814207,52.52233402943544
1599,﻿Wrocław,﻿Poland,51.10780700554335,17.018576005458954,16.91732275061007,51.05017253519123,17.124211941445715,51.16575980370712
1609,﻿Homel,﻿Belarus,52.44124244035954,30.97380845990405,30.89432759076497,52.39572708237214,31.05195171442203,52.49310516097888
1619,﻿Damascus,﻿Syria,33.49102172345281,36.31451914354079,36.17099188412539,33.38128422339871,36.426086130357646,33.59791930197947
1634,﻿Astana,﻿Kazakhstan,51.15636108896348,71.43752822129284,71.30275099064161,51.079059375579796,71.58552952050901,51.22359344115611
1646,﻿Medan,﻿Indonesia,3.5992971794652164,98.65101153858704,98.41142703522146,3.4380542038183357,98.8472143962993,3.8022786115225955
1648,﻿Kuala Lumpur,﻿Malaysia,3.0867657969116467,101.61215364583265,101.3506578142407,2.9201365567236715,101.85718118348969,3.276194128616889
1667,﻿Santo Domingo,﻿Dominican Republic,18.493793428589356,-69.89800818752605,-70.10969108870766,18.374944554063863,-69.59379522406616,18.589524038722722
1668,﻿Concepción,﻿Chile,-36.7790736850063,-73.07912008228429,-73.15782738103388,-36.84686136150475,-72.97592246436906,-36.70609140759671
1689,﻿Zurich,﻿Switzerland,47.37702988062657,8.546819120583741,8.385716881097284,47.2451230239102,8.658758956868223,47.4605258701597
1693,﻿Stockholm,﻿Sweden,59.337836601569094,17.997081075357467,17.773042632433505,59.22076542497694,18.29319588830604,59.4702124781197
1695,﻿Lobito,﻿Angola,-12.376228756164062,13.57372166528168,13.52422452888761,-12.435874807520602,13.627031272298721,-12.32978347787884
1711,﻿Kampala,﻿Uganda,0.30972984451383345,32.569235416482776,32.42795740958668,0.03235071695244752,32.77747163263209,0.48526296722796314
1717,﻿Nairobi,﻿Kenya,-1.2435124796249024,36.845622747096975,36.63327390046535,-1.358778884973477,37.053232450906705,-1.1080384961969139
1741,﻿Phnom Penh,﻿Cambodia,11.549752003273758,104.89217390097065,104.71351459374777,11.43272979140924,105.04058885206246,11.677269412589766
1744,﻿Tainan,﻿Taiwan,22.997947808081793,120.23206421891246,120.13724735879563,22.88794500678505,120.3224520598717,23.096627871481093
1747,﻿Melbourne,﻿Australia,-37.83704178220732,145.0612918382641,144.71117422821735,-38.127108984872415,145.39284540723256,-37.56985021851738
1779,﻿Dortmund,﻿Germany,51.50507763406203,7.436786890261919,7.282153986709898,51.40691028331796,7.593656208587324,51.63885598922975
1783,﻿Sousse,﻿Tunisia,35.838851895309645,10.593727270272444,10.514396193471065,35.75839634763277,10.680486900377664,35.93357108849331
1796,﻿Kitwe,﻿Zambia,-12.80859211090243,28.220393479633433,28.1687424071093,-12.901242037220728,28.270699036019284,-12.72975309749516
1799,﻿Aleppo,﻿Syria,36.20126674128562,37.128430562495126,36.970147244157204,36.126432101166316,37.30217289264466,36.29313734364929
1822,﻿Kathmandu,﻿Nepal,27.69335046561001,85.34298438261543,85.20144621792025,27.585856215195946,85.48114793530232,27.80611635740548
1876,﻿Kinshasa,﻿Democratic Republic of the Congo,-4.397145263660835,15.33628153907026,15.18337117048184,-4.514715286910799,15.542904922663682,-4.288003847782089
1892,﻿Beira,﻿Mozambique,-19.791294661836453,34.863902625784206,34.80009328735988,-19.85437588999532,34.92050157745619,-19.71365171691147
1919,﻿Kaohsiung,﻿Taiwan,22.622327071573462,120.34568430565696,120.25140257875347,22.470943833208704,120.44299461105383,22.771135967473835
1924,﻿Hermosillo,﻿México,29.08874561931882,-110.98013424475536,-111.05797008842862,28.99508970900576,-110.90749739713816,29.17387701163677
1949,﻿Porto-Novo,﻿Benin,6.5183350979064425,2.616217497476249,2.534540987308256,6.451104594620726,2.704765132068509,6.597045561316414
1951,﻿Utrecht,﻿Netherlands,52.08227500032789,5.078280248039942,4.977600668208832,51.99729769429679,5.181204808557226,52.15262623511875
1985,﻿Antananarivo,﻿Madagascar,-18.867258875526733,47.53356791800818,47.4295871833202,-19.04378362463091,47.64166910283538,-18.721624116350487
1991,﻿Srinagar,﻿India,34.09742067749049,74.8191634518298,74.74774726095673,33.97969703694732,74.91742667193553,34.21428946647428
1999,﻿Hanoi,﻿Vietnam,21.00585179214438,105.84519975398682,105.54456896820042,20.840799368378647,106.11424475207565,21.18122424994385
2005,﻿Angeles,﻿Philippines,15.126218254456944,120.65689963018858,120.53915618433587,15.003777243208992,120.80893984813055,15.241503609227731
2007,﻿Los Angeles,﻿United States,33.98571208664144,-118.00289442856575,-118.66802294640381,33.58058096587474,-117.11153201221602,34.32732906968585
2013,﻿Winnipeg,﻿Canada,49.880490824285104,-97.15034703409114,-97.33469747890287,49.76652204729813,-96.95100334133228,49.96684993686429
2024,﻿Seville,﻿Spain,37.38754273217044,-5.959876548058353,-6.019435195595131,37.33150511596485,-5.868518606663152,37.437401077981846
2045,﻿Gqeberha,﻿South Africa,-33.92028766910394,25.549287824790355,25.447301009025296,-34.00575077944849,25.650841678658733,-33.81475972577417
2047,﻿Nyala,﻿Sudan,12.055453396267533,24.88436072396677,24.83337219958175,12.003450922781287,24.937804647464898,12.109492224553334
2053,﻿Mwanza,﻿Tanzania,-2.545145419729217,32.9348192223868,32.86574990984819,-2.645031047609486,33.007299020321625,-2.4589436667213196
2062,﻿Sumgayit,﻿Azerbaijan,40.55836806980304,49.71829923009749,49.566412784806566,40.50708722295919,49.916706710866336,40.614778947430075
2082,﻿Cheongju-si,﻿South Korea,36.63528472912819,127.46533974068768,127.37147389067216,36.59178714328465,127.53632550487298,36.67970783910776
2089,﻿Guatemala City,﻿Guatemala,14.599234179192702,-90.5364800737438,-90.65400290784147,14.438554982917964,-90.39037155249997,14.717000366968279
2102,﻿Casablanca,﻿Morocco,33.59386029131477,-7.536316515472109,-7.762771972340061,33.493908962005385,-7.326091698042812,33.736673389415074
2115,﻿Maradi,﻿Niger,13.510240525356517,7.104334908656265,7.046396418172439,13.440502914898621,7.146868503583224,13.595829812383625
2125,﻿Kyiv,﻿Ukraine,50.44109706118081,30.510361842829443,30.30689399626443,50.33970729076224,30.723637093862216,50.54092373965996
2155,﻿Rajshahi,﻿Bangladesh,24.393128166036337,88.61830899910788,88.49978155898555,24.334603471766066,88.71083987682225,24.485476869547025
2171,﻿Lima,﻿Peru,-12.028013987393186,-77.00025438959032,-77.1792823893602,-12.28082379424466,-76.74438692463299,-11.807724169552827
2191,﻿Ikorodu,﻿Nigeria,6.626584312053047,3.528929074828867,3.4466960908928224,6.524073043109305,3.646789637798887,6.775440250079017
2211,﻿Homs,﻿Syria,34.71984944231269,36.713206370045754,36.6295486302658,34.65808272535086,36.78085392574388,34.78006443982729
2239,﻿Malacca City,﻿Malaysia,2.233963088536417,102.23076884817903,102.11186102862621,2.1596062483288136,102.32904127598128,2.2971366617105335
2241,﻿Daejeon,﻿South Korea,36.358835466197135,127.38553933580118,127.29096562719798,36.26680657928384,127.48174073849731,36.45997660503923
2249,﻿Cuenca,﻿Ecuador,-2.8897251346711,-79.01326507627661,-79.0756050979568,-2.936320013850696,-78.94544740934602,-2.847312097925015
2258,﻿Cuiabá,﻿Brazil,-15.620127661313205,-56.08928487615506,-56.19785128691195,-15.692647455868256,-55.98246668236686,-15.528551654164149
2264,﻿Liverpool,﻿United Kingdom,53.42164174538406,-2.913045897054109,-3.1444542978215044,53.304441318920105,-2.6077315704532626,53.53026717301813
2268,﻿Toulouse,﻿France,43.609293988292244,1.412900654052343,1.2926560225085464,43.51156340577173,1.525521867679217,43.7308629307511
2304,﻿Qarshi,﻿Uzbekistan,38.8309580649004,65.76809976258409,65.6282901744993,38.74816430898715,65.86372168068704,38.91708470993524
2306,﻿Shymkent,﻿Kazakhstan,42.34277429258994,69.60477106708767,69.47577647929347,42.256255385163705,69.73608666640772,42.41945479550241
2315,﻿Bangkok,﻿Thailand,13.770940914025863,100.55406727216676,100.16344131853293,13.50589899969122,100.89245824729113,14.16842642780479
2323,﻿Manila,﻿Philippines,14.604325329557087,120.96484772735498,120.52531873357407,14.119325411684953,121.3628051815123,14.995581592566745
2324,﻿Sydney,﻿Australia,-33.84953454947257,151.0621811526022,150.75583056655015,-34.07524216310264,151.32636687991422,-33.66728579878972
2334,﻿Santiago,﻿Chile,-33.47699597379585,-70.65310537939386,-70.8571868791802,-33.64994219964758,-70.48524789398435,-33.294687235465844
2335,﻿Cordoba,﻿Argentina,-31.393972545878757,-64.21534920777611,-64.35269378770613,-31.50062823045384,-64.07003510014697,-31.242960554633342
2359,﻿Bucharest,﻿Romania,44.43513512860272,26.100918733448182,25.924715782054047,44.353848284494525,26.240086874331983,44.50997850908478
2377,﻿Khamis Mushayt,﻿Saudi Arabia,18.29529642440032,42.73521087363432,42.66041109805492,18.226449212859805,42.800864229875124,18.350191956061312
2389,﻿Rangpur,﻿Bangladesh,25.747852292809274,89.250364085552,89.18691540473392,25.703400729302682,89.32416983021075,25.78756720993401
2401,﻿Culiacán,﻿México,24.79800464706525,-107.4086301111991,-107.52398684579053,24.745475904706268,-107.32723275521357,24.879749667244745
2454,﻿Samarqand,﻿Uzbekistan,39.64431077804888,66.95940294294701,66.79899543173669,39.54965795296682,67.08713020269231,39.71037058598656
2457,﻿Karachi,﻿Pakistan,24.90008614160309,67.09502394355655,66.8827073651581,24.76225710553446,67.37796430218124,25.072865446680776
2471,﻿San Diego,﻿United States,32.74041313178488,-117.0881577855404,-117.29568674853107,32.542646930374666,-116.89551192641704,32.89675647358001
2544,﻿Quito,﻿Ecuador,-0.22105014225819672,-78.49294952568192,-78.58580090397942,-0.38820973360364364,-78.40537989010491,-0.04852607666355218
2573,﻿Odesa,﻿Ukraine,46.42778967693533,30.705395952762345,30.616994929492908,46.28442241867877,30.78226249006655,46.55427039262961
2575,﻿Al-Fashir,﻿Sudan,13.630174208844688,25.352564654946814,25.30798304745532,13.571301936961396,25.39829767316528,13.685773673456199
2576,﻿Moscow,﻿Russia,55.75366501763476,37.66702713832736,37.26876612996471,55.523215640917726,38.099863397245414,56.03470926321929
2597,﻿Mandalay,﻿Myanmar,21.9247231980772,96.09026687522724,96.01500378555001,21.80472973600774,96.16825213656743,22.037768506462687
2637,﻿Istanbul,﻿Turkey,40.98549284489771,29.049837815703203,28.57457091027334,40.74948499573016,29.56011303514599,41.21726064689699
2659,﻿Ürümqi,﻿China,43.86699301238778,87.6008251069647,87.44416725666568,43.69429229139253,87.78291501068753,44.00540889569022
2667,﻿Gwangju,﻿South Korea,35.16499983332244,126.85689198199617,126.74113205696814,35.094044635766565,126.95314075110316,35.24247108921935
2676,﻿Medellín,﻿Colombia,6.242128734333824,-75.58388279115687,-75.66467733769868,6.110637619408635,-75.49745066278861,6.36192639460265
2695,﻿Garoua,﻿Cameroon,9.326827619869507,13.39150744664114,13.338812086168948,9.275929857358843,13.451207520522662,9.373477621469004
2732,﻿Kumamoto,﻿Japan,32.808535540983776,130.73616515943473,130.63033471965258,32.715317017941345,130.8396956559273,32.879470498181256
2734,﻿Brisbane,﻿Australia,-27.515771795467387,153.04103926586646,152.90081715810496,-27.6959652286992,153.20726880047036,-27.306536339400584
2747,﻿Rabat,﻿Morocco,33.99622378619533,-6.833571172333998,-6.967999502893178,33.89287293901495,-6.712474515297764,34.10130696854337
2774,﻿Quelimane,﻿Mozambique,-17.860310570169602,36.90588690236359,36.84806403504754,-17.896631900815773,36.94670019970429,-17.82245538613911
2787,﻿Korla,﻿China,41.75984650145978,86.15710998684031,86.06969998326196,41.69532224815076,86.25797791758897,41.83086309013193
2839,﻿Kirkuk,﻿Iraq,35.44619454293113,44.388639603203224,44.31278963013428,35.382260026541836,44.449424523534006,35.53963163047278
2869,﻿Toronto,﻿Canada,43.71237006515081,-79.51404915989689,-79.86567429761922,43.39290015963464,-79.10823243675185,44.02372874552351
2878,﻿Paris,﻿France,48.82054765367775,2.367987557249957,2.0600540334421975,48.55196629323198,2.6813178464892418,49.0535354878515
2880,﻿Ibadan,﻿Nigeria,7.395540969281189,3.9146056953149735,3.7809539765392834,7.27021434986059,4.061859534878587,7.546079764456962
2902,﻿Mombasa,﻿Kenya,-4.0322708006063985,39.66694092311161,39.571375533042385,-4.134178698222138,39.77050657650517,-3.956079623237693
2907,﻿Tashkent,﻿Uzbekistan,41.29095591974457,69.25736222861529,69.08860233524177,41.12720724699008,69.43478441646585,41.44259739737846
2920,﻿Daegu,﻿South Korea,35.86064843505514,128.60645474451965,128.44362483067732,35.77590727981733,128.78963599165724,35.959859873047996
2921,﻿Hiroshima,﻿Japan,34.40767233638746,132.45035902569194,132.24264922465275,34.26645447734234,132.60761940461072,34.55358076982495
2979,﻿Johor Bahru,﻿Malaysia,1.5131221521549159,103.7648831060274,103.58278645198823,1.431576268033568,103.96010519042804,1.6095292463933282
2996,﻿Abidjan,﻿Côte d'Ivoire,5.350657343073184,-3.996820445567325,-4.151939506617389,5.2112188811407725,-3.811288570252968,5.510966104695663
3005,﻿Florence,﻿Italy,43.82741475184798,11.153927839012455,10.998968147725398,43.74000689003902,11.325186981112761,43.932150543134725
3026,﻿Riyadh,﻿Saudi Arabia,24.682712899720304,46.733671592530605,46.48892376668284,24.485476869547025,46.94861181458339,24.879749667244745
3040,﻿Kuching,﻿Malaysia,1.5347853697304161,110.343084025769,110.27785242231734,1.455842256967969,110.40835471982713,1.6095292463933282
3058,﻿Bristol,﻿United Kingdom,51.47491193841152,-2.58303681101968,-2.7369361599855373,51.397255295487156,-2.465968755379894,51.55182536812264
3082,﻿Al Mushahidah,﻿Iraq,33.65595343540903,44.22144859264055,44.113319274269216,33.57191229032235,44.306206921223776,33.74534832472774
3084,﻿Kermanshah,﻿Iran,34.341234167675644,47.08937648138825,46.99779116098196,34.283845522490964,47.190676060717735,34.3969204134944
3096,﻿Padang,﻿Indonesia,-0.9051227902182817,100.37912784838404,100.29264864790731,-1.0109799845313536,100.48493053726637,-0.776426295948902
3104,﻿Bakersfield,﻿United States,35.36087596519932,-119.04801773622286,-119.18865903010095,35.26867459408778,-118.88949581576861,35.44344633285164
3115,﻿Málaga,﻿Spain,36.71893719532395,-4.443006980757946,-4.520921645672543,36.67970783910776,-4.337795705594669,36.75886876060792
3130,﻿Bursa,﻿Turkey,40.22115064730152,29.04769840803019,28.880603064854643,40.166488433282396,29.23211479556269,40.30085851665314
3171,﻿Kenitra,﻿Morocco,34.25400361503009,-6.580084311638466,-6.659297808272682,34.21428946647428,-6.499987279369229,34.29254155345358
3175,﻿Accra,﻿Ghana,5.6326833686510955,-0.20367223337959034,-0.520333701351247,5.454252822312704,0.0700636509540645,5.802667653215707
3191,﻿Tanta,﻿Egypt,30.78563509937062,30.999371432334822,30.94652913483485,30.745552668031344,31.06367182376829,30.83124287985337
3238,﻿Maroua,﻿Cameroon,10.598065885588811,14.312356866042462,14.237490389708595,10.544901689374777,14.381249788908725,10.642594728782838
3274,﻿Durango,﻿México,24.027390939264713,-104.64697786592194,-104.71173802020665,23.982829998550166,-104.57034726751625,24.07492561452327
3275,﻿Cartagena,﻿Colombia,10.387108625637335,-75.50279530656307,-75.57297401744846,10.3007207308195,-75.43306356418331,10.455360158807565
3307,﻿Baghdad,﻿Iraq,33.33169953001511,44.39186431722987,44.07885780188778,33.147546653164135,44.56068794283262,33.50257468878157
3315,﻿Bannu,﻿Pakistan,32.97900959093543,70.62337060402558,70.51478624966468,32.862185794524365,70.72803828893852,33.043738753627785
3324,﻿Changwon,﻿South Korea,35.2213588570769,128.6283251209148,128.53988410086814,35.16387967709062,128.731574736843,35.26867459408778
3338,﻿Madrid,﻿Spain,40.4024533344255,-3.7396405724361537,-3.9660672526847516,40.2112673791289,-3.5224169728560897,40.587849938312
3340,﻿Manchester,﻿United Kingdom,53.49849023271768,-2.265789712232052,-2.5835458185597253,53.314250702712464,-2.028829977439387,53.658103287967116
3371,﻿Jammu,﻿India,32.700722040439665,74.8703941853513,74.78740131528227,32.61169988277608,74.95742087140655,32.79305967719036
3397,﻿Algiers,﻿Algeria,36.73056001467995,3.07744073101124,2.8858854612787823,36.626950897927244,3.332749510201845,36.82045959148905
3400,﻿Frankfurt,﻿Germany,50.12305158789022,8.668355355093693,8.502022892796925,50.071906379324666,8.83215964015178,50.205737548897254
3440,﻿Arequipa,﻿Peru,-16.385190602648052,-71.54406655363532,-71.62822752349072,-16.472801220758644,-71.46446354034117,-16.29202949856282
3449,﻿Lille,﻿France,50.65445282439293,3.105622782430988,2.955522694754101,50.56969475019368,3.251711632007829,50.76166749600226
3468,﻿Karbala,﻿Iraq,32.605274785599526,44.026917055727274,43.95602166551947,32.55127745240817,44.12247971272542,32.66350278391001
3472,﻿Al Ahsa,﻿Saudi Arabia,25.386243438669666,49.60755709358675,49.51878450536031,25.299714322376925,49.741937826092624,25.47626377243911
3494,﻿Ottawa,﻿Canada,45.393619415694815,-75.70877769113687,-75.84634064261192,45.320697721660174,-75.58840112270121,45.47780844716683
3519,﻿Jafar Muhammad Ali,﻿Iraq,33.648827930546304,44.38334648814848,44.29796403665377,33.56324394293025,44.45147838488259,33.71065056676219
3528,﻿Larkana,﻿Pakistan,27.558103402791772,68.21149108461253,68.17656196345807,27.526584111752136,68.2518120318504,27.594324649217373
3540,﻿Lipa,﻿Philippines,13.971460883380034,121.13045313864056,121.04024524428772,13.808445589658213,121.20636061228345,14.16842642780479
3547,﻿Rosario,﻿Argentina,-32.940347867853795,-60.6837391740699,-60.77828936104909,-33.043738753627785,-60.592780860123725,-32.801699332163274
3562,﻿Tshikapa,﻿Democratic Republic of the Congo,-6.424289086068197,20.786427794339406,20.734072937114306,-6.475426961451302,20.834237540675243,-6.394354140899777
3570,﻿Dar es-Salaam,﻿Tanzania,-6.8157217027092365,39.18858975983508,38.9725209395789,-7.026857636131454,39.37749038600723,-6.564612825602641
3586,﻿Pekanbaru,﻿Indonesia,0.4912771154459848,101.43453835485693,101.34620492975881,0.4124729978300385,101.52609783651282,0.5984924215637031
3618,﻿Dnipro,﻿Ukraine,48.46548698605275,35.022522123377556,34.869155983933894,48.37260692860632,35.169241062664796,48.54252047427137
3662,﻿Krakow,﻿Poland,50.04973333085225,19.9705622734254,19.828679689337697,49.9763970223041,20.110047956956194,50.1101297695629
3668,﻿Yaroslavl,﻿Russia,57.62576032840612,39.865222519983526,39.74793228154914,57.543582998339794,39.97763025434568,57.706948085278654
3687,﻿Pyinmana [Nay Pyi Taw],﻿Myanmar,19.743645828779357,96.14451032914222,96.04708777403165,19.69709904120601,96.2469969603759,19.788146847728683
3700,﻿Montreal,﻿Canada,45.53496737152113,-73.6659505171047,-73.96487232367973,45.357650354951424,-73.3838737944336,45.71841102474009
3712,﻿Warsaw,﻿Poland,52.218551326593264,21.00014292551858,20.758365045195564,52.04581652665004,21.19277457482573,52.356797965802734
3739,﻿P'yŏngyang,﻿North Korea,39.03406810325519,125.74919627452867,125.63242379191922,38.95266608202208,125.88746255466846,39.148483612731525
3766,﻿Zaporizhzhia,﻿Ukraine,47.8449285574272,35.13737942535301,34.99110025989982,47.76076226013109,35.26461260723478,47.90171885848742
3780,﻿Xining,﻿China,36.627646141495035,101.75467201961648,101.61425467760417,36.530265053587804,101.88911978968244,36.7412747947168
3809,﻿Soshanguve,﻿South Africa,-25.48799705458633,28.09673250266275,27.877080930798037,-25.62767020943265,28.323724864904623,-25.324929677160142
3811,﻿Kharkiv,﻿Ukraine,49.98536442602269,36.274766865161716,36.129331391421616,49.90958208618549,36.44008601359751,50.071906379324666
3831,﻿Ulsan,﻿South Korea,35.515465444718785,129.36181587750565,129.24113273708886,35.408480588774175,129.47419031986735,35.609611833773855
3837,﻿Caracas,﻿Venezuela,10.46804434879799,-66.88826935721346,-67.03809428737799,10.406523493020334,-66.72198452892698,10.536761139727897
3860,﻿Al Hillah,﻿Iraq,32.46321030932212,44.353120589188855,44.201156367152784,32.31836287973404,44.484679359175956,32.568539436154026
3869,﻿Bogura,﻿Bangladesh,24.844786906810313,89.36932763730654,89.31755643548317,24.779039167589772,89.41975716351156,24.91332675727632
3874,﻿Hải Phòng,﻿Vietnam,20.876435376983512,106.66956142561227,106.55756489270277,20.782707484670052,106.78540118356862,20.965310770037288
3881,﻿Bogota,﻿Colombia,4.649518303099182,-74.13079896107085,-74.32234143989551,4.466132026721289,-74.01076879149258,4.790044360880275
3890,﻿Djelfa,﻿Algeria,34.666144366759326,3.2596331934318408,3.2209297462917097,34.623243235328964,3.3006289668357516,34.70163984641902
3909,﻿Kandahar,﻿Afghanistan,31.619287562888264,65.71912312771734,65.60928184585391,31.569384831077727,65.8152281894636,31.672555669857974
3920,﻿Busan,﻿South Korea,35.15606661260035,129.0574380207106,128.93607562709803,35.04168312832612,129.22051349759525,35.30361756352269
3921,﻿Okayama,﻿Japan,34.59891820139727,133.83395556334582,133.63639910469823,34.45783072456477,134.0627541953025,34.71906511211385
3938,﻿Rome,﻿Italy,41.89431092666866,12.533350203551231,12.349985841394519,41.75856133474001,12.708566058039008,42.00270222427132
3968,﻿Barranquilla,﻿Colombia,10.941228846345085,-74.79493723122333,-74.85456642921994,10.829873293542871,-74.72964332284207,11.033487797616914
3974,﻿Bilbao,﻿Spain,43.304303963729026,-2.9831533198840323,-3.1150869791531823,43.20139595316608,-2.830950782108961,43.383775807534754
3978,﻿Lyon,﻿France,45.74384555243,4.863065524798564,4.705929395091459,45.65359566999293,5.0331019292357295,45.829588110107856
3993,﻿Sana'a,﻿Yemen,15.36809854081448,44.20637247742262,44.12981080739703,15.25790229599979,44.27053428432913,15.49573849463365
4008,﻿Fresno,﻿United States,36.787616101970094,-119.77135415741083,-119.91316657913791,36.67091407202149,-119.63539994353425,36.89967518261529
4012,﻿Quebec,﻿Canada,46.82216418893247,-71.27542647664605,-71.45159932792252,46.73133736053233,-71.11408589528187,46.917956891790084
4021,﻿Oshogbo,﻿Nigeria,7.7976924519682225,4.53648314958252,4.455864738401833,7.7165007264135115,4.606400709293787,7.878830845911327
4022,﻿Stuttgart,﻿Germany,48.79256557474998,9.210790245040974,9.080204912933132,48.684276379503586,9.441259121587116,48.9303370770242
4031,﻿Faiyum,﻿Egypt,29.31646401233742,30.852644002403487,30.79579440645977,29.2760940916298,30.94144722945643,29.378349883687925
4034,﻿Al-Najaf,﻿Iraq,32.02830999305221,44.34651158926045,44.27141527269543,31.97371874470793,44.428731395592656,32.09428828922189
4064,﻿Hanover,﻿Germany,52.38536384764463,9.743342470297826,9.567342369192163,52.27897750612076,9.874399971843252,52.46388342919931
4092,﻿Sacramento,﻿United States,38.59344179113288,-121.3915486160858,-121.5849654687243,38.375290896074,-121.19087809887449,38.81038066395069
4134,﻿Chihuahua,﻿México,28.65904886444332,-106.08119780467693,-106.16581295825718,28.578372552688023,-105.95491593537123,28.756888439608357
4150,﻿Eskisehir,﻿Turkey,39.77189243707361,30.519066414808695,30.426604120135,39.73716963901349,30.604697534268986,39.808652871307125
4155,﻿Khartoum,﻿Sudan,15.601341835866856,32.513874598398125,32.27407948498756,15.290701137039445,32.739837319166035,15.815752372090378
4175,﻿Barcelona,﻿Venezuela,10.174484273276146,-64.65927970859094,-64.7237361603339,10.04847638098516,-64.58278123853923,10.260030985565813
4182,﻿Marseille,﻿France,43.312084827424194,5.417919979928928,5.303881427540596,43.228739948311045,5.604835557737824,43.40202502371975
4183,﻿Ilorin,﻿Nigeria,8.482335803410542,4.5642849701777,4.480314020147644,8.398453525026294,4.66174430679262,8.552767036911346
4184,﻿Hamburg,﻿Germany,53.57657604013526,9.993262798612296,9.770076017919585,53.42220861163425,10.192711076028914,53.736842343486906
4199,﻿Namangan,﻿Uzbekistan,40.997284482109315,71.67358847057463,71.52987728837329,40.88429317120387,71.88277914393535,41.082197873806074
4212,﻿Aguascalientes,﻿México,21.887895658007174,-102.28936826186973,-102.36390546326636,21.79640960147105,-102.22170233074284,21.979495189883497
4230,﻿El Mahalla El Kubra,﻿Egypt,30.962900203281162,31.193098833458443,31.12017755952501,30.916962014922834,31.281286281604324,31.019863318740555
4277,﻿Peshawar,﻿Pakistan,33.989647751358085,71.52819864460056,71.30413748977888,33.85815263109515,71.75332191858027,34.12737479950512
4285,﻿Himeji,﻿Japan,34.81588442956443,134.64859933799013,134.5097839273324,34.75391979339858,134.7602597080641,34.902114105924724
4305,﻿Banha,﻿Egypt,30.42634646658203,31.17681174674148,31.013878878745658,30.274768369861867,31.292825332886636,30.591382805293257
4316,﻿Amritsar,﻿India,31.632659519076675,74.87881001880181,74.76548196434962,31.57798075185851,74.9725100885319,31.6897550146525
4323,﻿Kanazawa,﻿Japan,36.57461267513705,136.62681770556958,136.5300957136688,36.48633196381568,136.71470323914866,36.66212068255723
4332,﻿Leeds,﻿United Kingdom,53.796871335731346,-1.632187438491211,-1.8714774659361646,53.717152514818764,-1.4282925248567038,53.864908829597034
4333,﻿Zaragoza,﻿Spain,41.65124320051125,-0.8812360303874869,-0.956685159384973,41.60502095210542,-0.7653481275079785,41.69532224815076
4356,﻿Lanzhou,﻿China,36.0777231335627,103.76576102119532,103.57145144658263,36.00368182987133,103.95667204795163,36.14397374023067
4364,﻿Morelia,﻿México,19.707336604632296,-101.19951692107588,-101.28988451428684,19.655720204631937,-101.12482427390712,19.77159122847299
4382,﻿Voronezh,﻿Russia,51.677089160358626,39.21312077214097,39.07479815287472,51.59049806809325,39.353645230606446,51.75499254008038
4389,﻿Fergana,﻿Uzbekistan,40.44376006181815,71.7445120788001,71.59516026709817,40.33670741531745,71.87242464046726,40.54297726576775
4399,﻿Osaka,﻿Japan,34.70423613474369,135.43490768522628,134.71826758503366,34.31863168150237,135.85112429539086,35.08531683952413
4407,﻿Fez,﻿Morocco,34.02223171279418,-5.005098944080391,-5.067433225197483,33.94496339339519,-4.933529532115793,34.07524216310264
4438,﻿Iloilo City,﻿Philippines,10.734080183192528,122.53100074377147,122.33946276735419,10.667019855366616,122.60799412362286,10.846160491941921
4443,﻿Buenos Aires,﻿Argentina,-34.64522248903503,-58.56083136101984,-58.97873091068365,-34.93699797270411,-58.13917069697432,-34.37082110789649
4446,﻿Newcastle upon Tyne,﻿United Kingdom,54.98823712389697,-1.5501155485997204,-1.7239046806709513,54.91459990946504,-1.3699987461872793,55.06394483184505
4490,﻿Naples,﻿Italy,40.86308004398842,14.337441645050811,14.107785467176962,40.68660950191189,14.707638395777696,41.01920409932211
4509,﻿Jambi,﻿Indonesia,-1.6232323504020032,103.6044796711152,103.49445510167773,-1.6742408610125845,103.68535669267575,-1.5771737361236935
4522,﻿Valencia,﻿Spain,39.465886967034194,-0.40211171992066946,-0.5156402896700167,39.35342047372508,-0.28116817665307403,39.54965795296682
4529,﻿Antalya,﻿Turkey,36.92209396455277,30.726704723551702,30.589810895996035,36.82045959148905,30.83155593801706,37.02296090366737
4538,﻿Ahwaz,﻿Iran,31.334499680167163,48.71494693684138,48.56154789280439,31.217208433466368,48.91435055065177,31.517815588005163
4542,﻿Bikaner,﻿India,28.020168571335827,73.3208218006253,73.25905933717524,27.96718269465373,73.40276670128554,28.07743845472519
4576,﻿Andijon,﻿Uzbekistan,40.78243683521341,72.34053775679057,72.221998832343,40.7045716629216,72.45190003597526,40.875302769700085
4591,﻿Ciudad Guayana,﻿Venezuela,8.274250763748448,-62.74366238103543,-62.804638579994595,8.219804031093503,-62.68652493992681,8.32536587471858
4593,﻿Belém,﻿Brazil,-1.3735201150954914,-48.43320297174759,-48.51194500404427,-1.4801083459751976,-48.300905253570605,-1.2455401654809781
4604,﻿Polokwane,﻿South Africa,-23.869510601253793,29.417749732797347,29.32740104265948,-23.940976634005427,29.51724047886989,-23.78198079935088
4605,﻿Cairo,﻿Egypt,30.071114685686243,31.275572910319372,31.01570386411339,29.66828650576536,31.534463710331508,30.36885642851496
4621,﻿Long Xuyên,﻿Vietnam,10.368296105557846,105.44288336080767,105.31687126798842,10.211205931966111,105.5654885715302,10.49605962466875
4625,﻿Las Vegas,﻿United States,36.13623659349918,-115.15601482153157,-115.37452079575777,35.92480889103011,-114.91810466531712,36.31947144919003
4644,﻿Nizhny Novgorod,﻿Russia,56.29392121570108,43.919071995911445,43.736740610370504,56.19568701812394,44.11094496034041,56.39725667676973
4655,﻿Yinchuan,﻿China,38.47650491298227,106.23653253383097,106.04633040605259,38.339816847731484,106.37907189752343,38.57939360666085
4659,﻿Chŏngjin,﻿North Korea,41.77009160994145,129.76458921591367,129.66220737195843,41.70435498043047,129.86148698647332,41.83086309013193
4663,﻿Acapulco,﻿México,16.86635242681051,-99.84992691635182,-99.94110048958599,16.801642616946665,-99.77926312845943,16.933239847263852
4666,﻿La Plata,﻿Argentina,-34.910567502267355,-57.967415440041016,-58.10987317643577,-34.98061066344468,-57.8391224569183,-34.8410807554132
4698,﻿Bacolod,﻿Philippines,10.66211553136448,122.96205469735241,122.8961317051919,10.593746719288669,123.03740979657962,10.756585085667588
4699,﻿Phoenix,﻿United States,33.558874035866886,-112.13985249630245,-112.4644435018551,33.40726965762219,-111.77697746827093,33.71065056676219
4701,﻿Bucaramanga,﻿Colombia,7.100284899107774,-73.114736334971,-73.15078483151746,7.051191084306169,-73.07024611631599,7.164753675205121
4706,﻿Sheffield,﻿United Kingdom,53.38391364100671,-1.4280132194284805,-1.5710793921486983,53.29463276189641,-1.2829816754997245,53.48113713144175
4736,﻿Mesa,﻿United States,33.35733033891311,-111.82139271603491,-112.18591008002798,33.19946796969426,-111.50948962334635,33.493908962005385
4768,﻿Cần Thơ,﻿Vietnam,10.0416984067635,105.71746280741819,105.54079848399965,9.918315322739828,105.8479486167764,10.162383745624377
4773,﻿Torreón,﻿México,25.553249546376186,-103.4274921999397,-103.5618966541254,25.47626377243911,-103.30383427692944,25.62767020943265
4787,﻿Durban,﻿South Africa,-29.852241512996525,30.934312694957583,30.75138717064208,-30.103786426333173,31.100440164741055,-29.617098337504302
4813,﻿Oujda,﻿Morocco,34.682077467782186,-1.9098815413158023,-1.9602290809912215,34.64066229132751,-1.8584722293089606,34.72777826349318
4822,﻿Sincan,﻿Turkey,39.96379072777983,32.603355152857404,32.519191375091445,39.91592994717251,32.67219517092069,40.01432255332581
4865,﻿Kabul,﻿Afghanistan,34.52858543472933,69.13550614653124,68.9301216289372,34.38822030442538,69.33073999555033,34.623243235328964
4868,﻿Sirajganj,﻿Bangladesh,24.432943396317096,89.66922042084954,89.58371068610533,24.342983532058668,89.74395896541772,24.50224481587696
4874,﻿Otsu,﻿Japan,35.03225958734767,135.93409075265842,135.84209965896574,34.928276482605455,136.0546215604143,35.15514906368594
4878,﻿Valledupar,﻿Colombia,10.461974796747231,-73.2614893179482,-73.30427337290745,10.422802055959071,-73.22006251507891,10.49605962466875
4921,﻿Ankara,﻿Turkey,39.953632520790336,32.84388454559326,32.67754364100442,39.84440492169357,32.99732773723805,40.059064013173675
4941,﻿Portland,﻿United States,45.5262889107028,-122.66710078008943,-123.00962869473211,45.357650354951424,-122.36039065011478,45.71841102474009
4943,﻿Cúcuta,﻿Colombia,7.880757575976039,-72.5039513938054,-72.55708097384793,7.789546297516583,-72.45536850129756,7.951887319064611
4945,﻿Goiânia,﻿Brazil,-16.70698203155004,-49.29049723164461,-49.44274913525823,-16.850987481215434,-49.13539677842902,-16.571431070870823
4952,﻿Kasaï-Oriental,﻿Democratic Republic of the Congo,-6.123462173130489,23.60594019764403,23.500083815304205,-6.167376229912751,23.70211923381159,-6.078216591853948
4959,﻿Nasiriyah,﻿Iraq,31.043922838616748,46.25365708717816,46.17936204818786,30.99413406154647,46.316305559477,31.08848751833015
4968,﻿Palembang,﻿Indonesia,-2.9726358807758646,104.75084914892042,104.61004876035788,-3.0657909463297215,104.8458524378474,-2.887769909959477
4981,﻿Nuremberg,﻿Germany,49.446665022807835,11.04554545230792,10.916908903701627,49.35727567296799,11.181558849359234,49.5284340649211
4987,﻿Rostov-on-Don,﻿Russia,47.251992155384315,39.714087410853296,39.575721139584644,47.179630123481886,39.84686755210259,47.32000882102137
4992,﻿Karaj,﻿Iran,35.77531129220453,50.967304877921016,50.82758365992468,35.6358603453919,51.08790441204119,35.898524488782535
5021,﻿Amarah,﻿Iraq,31.84382728469512,47.14686649695221,47.08985254039491,31.8015801456462,47.197419441800385,31.887634257184043
5029,﻿Yangon,﻿Myanmar,16.88300480217479,96.14611326371147,96.01440357868002,16.735857079099922,96.30654389494613,17.073100400977218
5036,﻿El Paso,﻿United States,31.782644421600125,-106.36490737408164,-106.5180116780962,31.646758908032155,-106.19670405552799,31.93928129685062
5056,﻿Sukkur,﻿Pakistan,27.704579836592252,68.86032995433145,68.79093443299236,27.645140464381047,68.94647333467813,27.75527212731836
5070,﻿Nottingham,﻿United Kingdom,52.95299606858853,-1.1866909970353596,-1.3549393652170918,52.87364101926608,-1.0545951494553822,53.049686312924074
5071,﻿Barcelona,﻿Spain,41.461968716133434,2.166995892743359,2.0058776329526036,41.29834834116699,2.400727062226273,41.59599342090703
5077,﻿Konya,﻿Turkey,37.8593255687328,32.48723886911672,32.36151030190641,37.728906024892886,32.57792297992467,38.020842291123834
5080,﻿Krasnodar,﻿Russia,45.05932223311382,39.011370239513354,38.89891623583875,44.97009218245283,39.19962589098364,45.16374875144012
5097,﻿Querétaro,﻿México,20.60174704342813,-100.4166882091295,-100.50275606851123,20.51725255648696,-100.3124969132203,20.68314118576446
5098,﻿Seattle,﻿United States,47.622454103260594,-122.27182969759998,-122.44413400709473,47.273200595009534,-122.0682244564799,47.967547224560846
5114,﻿Bi'r Rubak,﻿Yemen,12.865262872524188,44.97348337549028,44.91593907229246,12.819575070051938,45.03284196862193,12.925744111987182
5119,﻿Shahajadpur,﻿Bangladesh,24.20511133057833,89.65121727296724,89.5105637211177,24.033060861269313,89.73657974847447,24.376505881191175
5125,﻿Nara,﻿Japan,34.61899560357094,135.75925662061124,135.65447936574841,34.45783072456477,135.87788591103714,34.76263432907867
5157,﻿Ciudad Juárez,﻿México,31.659812778111956,-106.4144333151325,-106.54721687004943,31.535004139991962,-106.29349524190981,31.775769817477464
5167,﻿El Mansura,﻿Egypt,31.03854842780423,31.40708193127064,31.26933502454566,30.96840742727139,31.65683957041004,31.097066859282908
5174,﻿Tehran,﻿Iran,35.6804473792779,51.34475149853258,51.0835489846136,35.478417793134966,51.627824292229306,35.81969095955721
5196,﻿Mit Ghamr,﻿Egypt,30.698924797710763,31.27169197374066,31.211943258247253,30.591382805293257,31.344019414993575,30.796963330805134
5201,﻿Basra,﻿Iraq,30.52287251365783,47.79778661402155,47.68851896026065,30.43730561061806,47.90618331151689,30.61707132910033
5213,﻿Nagoya,﻿Japan,35.120187393035046,136.88133568780552,136.4320692126456,34.65808272535086,137.2213924829334,35.513394978671705
5231,﻿Qom,﻿Iran,34.63528505784727,50.87234186036266,50.798784775606414,34.57970161704967,50.932584932896475,34.70163984641902
5236,﻿Baotou,﻿China,40.64756019171162,109.8171039705844,109.66747675654933,40.56989951881111,109.97549818851112,40.722535635830496
5239,﻿Ho Chi Minh City,﻿Vietnam,10.851945276416737,106.71304785303526,106.45755453837343,10.585605674442656,107.03525667035697,11.106802179355734
5243,﻿Toluca,﻿México,19.291531873231317,-99.6188310918482,-99.79897485694013,19.19255280093641,-99.43496020351853,19.399261814264808
5249,﻿Munich,﻿Germany,48.13565991529545,11.560067341239899,11.395108905528788,48.03340666556159,11.745646716570892,48.24059688257268
5287,﻿Jalalabad,﻿Afghanistan,34.42887771873425,70.44339343035996,70.31991264915862,34.379520535937594,70.54974707859806,34.47523674349689
5294,﻿Đà Nẵng,﻿Vietnam,16.023108520768755,108.20744417430312,108.10251058736594,15.914256895719982,108.28607552004142,16.144172711952027
5303,﻿Constantine,﻿Algeria,36.360224149979935,6.616081041699179,6.560593411988298,36.29313734364929,6.6751601180104805,36.433624612682486
5304,﻿Leipzig,﻿Germany,51.335668897993905,12.373931531732213,12.244877029138685,51.26216406790087,12.504129909612955,51.40691028331796
5314,﻿Mardan,﻿Pakistan,34.19307894319236,72.04396808950716,71.940345040198,34.07524216310264,72.13316935754082,34.29254155345358
5315,﻿Jodhpur,﻿India,26.264251208816138,73.02080254548778,72.91313164062238,26.149742726276703,73.16692854381702,26.352072394727514
5332,﻿Al Minya,﻿Egypt,28.085385838803667,30.775239066592636,30.715963334096426,28.03502732868802,30.846851924964287,28.136824695643394
5351,﻿Provo,﻿United States,40.32405985714854,-111.73424648447755,-111.8855831134403,40.2112673791289,-111.61739607703831,40.42636087213305
5369,﻿Donghe,﻿China,40.589137910790576,110.00170648131217,109.87120504867471,40.534004081011126,110.16713050937466,40.64171201678472
5377,﻿Salt Lake City,﻿United States,40.65213454741449,-111.92366847436116,-112.11729938038852,40.4981158350733,-111.78081399990386,40.81238273051243
5392,﻿Mingora,﻿Pakistan,34.781244791868126,72.3341585479844,72.2462578471258,34.710352306467996,72.42273694708368,34.84979876143255
5398,﻿Cilegon,﻿Indonesia,-6.001696481475516,106.02929823979062,105.89966974071463,-6.078216591853948,106.12116377939364,-5.908018376464324
5402,﻿Mexico City,﻿México,19.460630748591814,-99.10582733707301,-99.3792300693726,19.200819254284337,-98.80842472360902,19.796424903272705
5409,﻿Kisangani,﻿Democratic Republic of the Congo,0.5210919950786281,25.192328360537818,25.124667677988196,0.4690873941240032,25.264380061655995,0.5661410649187463
5436,﻿Mersin,﻿Turkey,36.8005632965256,34.61041451190399,34.47099508636969,36.70609140759671,34.742186479823864,36.86446444441142
5472,﻿Jakarta,﻿Indonesia,-6.368845408217797,106.82887530890493,106.09581938941768,-6.994413796945866,107.523543546505,-6.029586451929263
5483,﻿Berlin,﻿Germany,52.503150140392165,13.400544030250773,13.120922710815316,52.37626094759021,13.667277353312482,52.649075188436335
5500,﻿Sendai,﻿Japan,38.27672245662204,140.91267834771827,140.79272100082383,38.14482573824485,141.07244281142854,38.39303036618928
5511,﻿Samsun,﻿Turkey,41.30322451917834,36.30895401718415,36.21125336393174,41.244285698893115,36.3944012184187,41.37947372729159
5525,﻿Cagayan de Oro,﻿Philippines,8.498249166553288,124.66953503609942,124.55609391722943,8.43093861370788,124.79044057812001,8.569011948705729
5530,﻿Sokoto,﻿Nigeria,13.040325707210185,5.23832651180588,5.181221261127492,12.982919198010668,5.293727152623532,13.105454203328431
5532,﻿Dresden,﻿Germany,51.039885243390025,13.746365485888164,13.621913665909213,50.963551786906,13.891713863251715,51.117585500713915
5559,﻿Kayseri,﻿Turkey,38.74440389049789,35.51992461530098,35.413776908821184,38.67708478053481,35.63109698907212,38.81927037668714
5564,﻿Nowshera,﻿Pakistan,34.00163835812752,72.07845146835572,71.94133875882756,33.927598574863666,72.25715471559263,34.07524216310264
5628,﻿Adana,﻿Turkey,37.01134527143565,35.30163359237022,35.22203962598007,36.95250273905865,35.410674247382254,37.07582063671408
5678,﻿Hyderabad,﻿Pakistan,25.381099826201094,68.34876991781007,68.24482248697694,25.299714322376925,68.41714168323905,25.4678544299546
5707,﻿Toyohashi,﻿Japan,34.769990272549535,137.37352536524816,137.27462087114336,34.6929277318304,137.51126239456266,34.86723581697488
5720,﻿Isfahan,﻿Iran,32.67020859727072,51.63756441158911,51.47758071882983,32.585802673633005,51.806207143049015,32.758504222832926
5748,﻿Bandung,﻿Indonesia,-6.942242584719828,107.64293751579204,107.41302928688236,-7.107971036425164,107.90151906798764,-6.783549694918236
5758,﻿Beni Suef,﻿Egypt,29.040592372483612,31.074280440030233,30.98777305718882,28.961048278466457,31.144615903650674,29.105753705722
5816,﻿London,﻿United Kingdom,51.50496499986925,-0.13358494180290242,-0.5897669469831324,51.29109986023648,0.32173404981276305,51.7840438379636
5827,﻿Tianshui,﻿China,34.57698298988123,105.73015954967501,105.63597304677293,34.5448745072262,105.83420924291377,34.61453422374878
5830,﻿Tarogong,﻿Indonesia,-7.218535576994213,107.89127110219849,107.74812448079477,-7.327004785606814,108.03294524427747,-7.1323061227887345
5847,﻿Hohhot,﻿China,40.81513901681191,111.65823867941715,111.49580592729839,40.73151830220779,111.8040915598869,40.911267116519795
5853,﻿Puebla,﻿México,19.04682813709589,-98.20764848560428,-98.33685884653136,18.944632431556798,-98.02637506132432,19.14295740128663
5862,﻿Addis Ababa,﻿Ethiopia,8.992193031102516,38.75857686988305,38.59219481463614,8.853341369605783,38.92683183731739,9.097119165851849
5872,﻿Davao City,﻿Philippines,7.088416041585938,125.57696174800365,125.4649193751683,6.953860211047007,125.68229788515109,7.245876434586826
5881,﻿Saratov,﻿Russia,51.54756740238762,45.97780862875363,45.8655002477861,51.435879751420764,46.10782887694962,51.61951054536899
5901,﻿Kazan,﻿Russia,55.794498089665275,49.14887820545003,48.96971595939086,55.67340087992266,49.3107073127205,55.884014929230766
5906,﻿Khulna,﻿Bangladesh,22.853724054255885,89.54482553075101,89.48406133875693,22.771135967473835,89.61790566599223,22.938017718942795
5917,﻿Likasi,﻿Democratic Republic of the Congo,-10.990318903328113,26.739085279867215,26.684033118357494,-11.04977927612548,26.796419657837163,-10.952035576666947
5918,﻿Al Zaqaziq,﻿Egypt,30.605557942420567,31.474456730309523,31.33426064929946,30.540013476900768,31.576860304372502,30.677021245762557
5929,﻿Tokyo,﻿Japan,35.682264379280234,139.6522658463679,139.08583068846664,35.172610643267284,140.29177289761617,36.21415505821356
5932,﻿Denver,﻿United States,39.7231324804401,-104.97742690710243,-105.19664315040038,39.51396298741169,-104.70748874044797,39.9606472883224
5933,﻿Novo Hamburgo,﻿Brazil,-29.708879284614973,-51.1246710208122,-51.202616797450105,-29.804836554188896,-51.02576801689357,-29.634159966239334
5935,﻿Benin City,﻿Nigeria,6.33715197795678,5.626419772616298,5.518106426273972,6.22411716557798,5.749335586039846,6.49974977704255
5951,﻿Austin,﻿United States,30.36605607866836,-97.7337869887255,-97.8953292004369,30.146521393955226,-97.58411166056497,30.574258553003517
5958,﻿Volgograd,﻿Russia,48.74568275187904,44.513358631434734,44.401786476597756,48.637008050441196,44.683307591079334,48.83564549616239
5963,﻿Mymensingh,﻿Bangladesh,24.74845686484582,90.410171501491,90.33924021595378,24.711916083767168,90.4693531031074,24.787430521809313
5971,﻿Porto Alegre,﻿Brazil,-30.002720091340883,-51.13614143289676,-51.27912680422263,-30.172165734967535,-50.94071220132946,-29.804836554188896
5976,﻿Hatay,﻿Turkey,36.217998782564415,36.16134905086433,36.110544344929465,36.126432101166316,36.2258109015676,36.31947144919003
5985,﻿Tasikmalaya,﻿Indonesia,-7.290171037411265,108.20128409876912,108.0421004567363,-7.464935996277676,108.41800521182081,-7.107971036425164
6000,﻿Savar,﻿Bangladesh,23.941295819502532,90.2143492565925,90.00008268445522,23.765248703711276,90.34810269014856,24.133544998871727
6009,﻿Warri,﻿Nigeria,5.5409314366181786,5.77400378051612,5.654105981556749,5.454252822312704,5.884222821056879,5.6243989143431286
6054,﻿Louhajang,﻿Bangladesh,23.57501015219718,90.17563658673158,90.01554131651116,23.455851694169606,90.35148085812502,23.681600478403652
6090,﻿Dhaka,﻿Bangladesh,23.452980444799685,90.84901935526189,90.2093787415547,22.787820640311846,91.46123235329927,24.35136380305603
6115,﻿Uberlândia,﻿Brazil,-18.91851848461523,-48.281888719291494,-48.35415751697028,-18.977680328340867,-48.20957011730398,-18.86202359081049
6131,﻿Monterrey,﻿México,25.711315122608465,-100.27481970250278,-100.52343755245134,25.56878129688415,-100.06888904740613,25.83807797881383
6141,﻿Shiraz,﻿Iran,29.605595434340056,52.52880748199806,52.43504896316485,29.540334519415886,52.64436529780252,29.710950843130156
6143,﻿Ahmedabad,﻿India,23.032176500918716,72.58618249956652,72.44278427664159,22.938017718942795,72.70816352321535,23.138379201488824
6167,﻿Houston,﻿United States,29.789585320956462,-95.45506078758838,-95.73978375078553,29.548862742188074,-95.0511935188549,30.095240271907045
6178,﻿Bhavnagar,﻿India,21.756158580079692,72.13255489564325,72.04815045998926,21.72153665552779,72.18650186574557,21.80472973600774
6183,﻿Oaxaca de Juárez,﻿México,17.06534513959347,-96.7313586860568,-96.78767359777648,16.99905161616024,-96.65897941872096,17.138930958653205
6214,﻿Yulin,﻿China,38.24270377006449,109.7460745748347,109.65663027936802,38.1359671598622,109.80999084257495,38.32208226689938
6229,﻿Ludhiana,﻿India,30.890650770104997,75.88308425683022,75.76277376914848,30.805532784623335,76.02602938960014,30.96840742727139
6252,﻿North Richland Hills,﻿United States,32.85101383615556,-97.19821096171995,-97.32098698037112,32.758504222832926,-97.01823640805993,32.9486220403068
6269,﻿Arlington,﻿United States,32.697943157059875,-97.08828561778186,-97.23605506582857,32.585802673633005,-96.9327703667528,32.801699332163274
6297,﻿Kishoreganj,﻿Bangladesh,24.342681256844333,90.7325462839243,90.57101000974914,24.116795562571056,90.96924387381252,24.50224481587696
6321,﻿Lubumbashi,﻿Democratic Republic of the Congo,-11.653122150456154,27.478965292172525,27.368869343940908,-11.775108264607553,27.586238491165517,-11.546838128127746
6350,﻿Curitiba,﻿Brazil,-25.452878622396923,-49.254045371907274,-49.40196320064042,-25.602430756031673,-49.11924949385151,-25.308119219222462
6375,﻿Dera Ghazi Khan,﻿Pakistan,30.031830728617308,70.65059950558327,70.59703040795286,29.967081425231722,70.71082823096681,30.086694396918325
6378,﻿Chengdu,﻿China,30.673293728848666,104.02962419233604,103.83421425072582,30.462978736076955,104.26410910659646,30.899815868497445
6379,﻿Cilacap,﻿Indonesia,-7.687604126544646,109.05763988108802,108.98472476767063,-7.748964825551295,109.17278742507507,-7.643459985708594
6397,﻿Dallas,﻿United States,32.89767884330437,-96.76013104501321,-96.9543704988892,32.66350278391001,-96.52654654516606,33.15619940052321
6418,﻿Samara,﻿Russia,53.218902282989475,50.21544503095916,50.05277742495806,53.15739953959663,50.36568523462748,53.28482503122126
6430,﻿Manono,﻿Democratic Republic of the Congo,-7.295229203936014,27.393817186953935,27.365602722280244,-7.318891697057996,27.4269960733188,-7.27021434986059
6433,﻿Izhevsk,﻿Russia,56.84652311571346,53.21419516174416,53.076079800571854,56.781317333847326,53.33336943356226,56.91303519563502
6441,﻿Tampico,﻿México,22.262541360794398,-97.8604329455561,-97.92740318564024,22.179327492109987,-97.79529372098261,22.345936994720596
6477,﻿Diyarbakir,﻿Turkey,37.939361434726095,40.17543656039786,40.08715400605274,37.89693750022703,40.25503195818589,38.003136801264
6485,﻿Tegal,﻿Indonesia,-6.926514293124782,109.1127334589638,108.99874859627336,-7.067413654896983,109.25274184216464,-6.807878343363357
6501,﻿Veracruz,﻿México,19.171612665157227,-96.16681997225498,-96.25143762191041,19.09336768152061,-96.08148783487015,19.22561956460229
6515,﻿Purwokerto,﻿Indonesia,-7.391991064532592,109.28939939996235,109.16874330161339,-7.481164286701792,109.41716788152887,-7.28643990714433
6571,﻿Taxila,﻿Pakistan,33.7809949150518,72.75854213116071,72.61782620061344,33.71065056676219,72.8634387812017,33.85815263109515
6604,﻿Deyang,﻿China,31.12418372979132,104.37735271761053,104.31306131408114,31.054173080528326,104.43619571706108,31.182876394001344
6607,﻿New Orleans,﻿United States,29.96170166078046,-90.10364999832348,-90.28847271240112,29.830447530410865,-89.94414683884519,30.0696034848043
6621,﻿Reynosa,﻿México,26.043825388219727,-98.30272789818314,-98.41928707639899,25.981236345790283,-98.20172523613304,26.1076075007202
6635,﻿Pekalongan,﻿Indonesia,-6.90967911107095,109.62994643827,109.48752985250884,-7.002524675678645,109.78319029492886,-6.832207464037152
6639,﻿Yenagoa,﻿Nigeria,4.947976129456097,6.331792962872075,6.250230445555644,4.871031472999743,6.421114390672094,5.049216361629939
6641,﻿Damietta,﻿Egypt,31.435445077726396,31.818719110388013,31.750779572329623,31.345995605461624,31.877284910507555,31.535004139991962
6646,﻿Rahim Yar Khan,﻿Pakistan,28.420821772123745,70.30447134008179,70.2423109004841,28.374494759092173,70.36437576476911,28.459425730923492
6648,﻿Bajitpur,﻿Bangladesh,24.165781153299594,90.9103166691584,90.8229422967317,24.058179090480877,91.0051389014954,24.284327529693233
6663,﻿Brahmanbaria,﻿Bangladesh,23.99545693323871,90.96189470074222,90.76423390928942,23.874021975954626,91.15735526147257,24.116795562571056
6664,﻿Mianyang,﻿China,31.471523803559204,104.71934750676273,104.59367526547385,31.40611907200963,104.79473621018617,31.526409714634696
6692,﻿Udaipur,﻿India,24.585383900671264,73.71335437784926,73.63908052738998,24.519013611991777,73.79335763281067,24.66158279304707
6695,﻿Pontianak,﻿Indonesia,-0.05144421097236153,109.34660604816567,109.24664886455649,-0.1860167438965018,109.45653795755281,0.024263037498231495
6696,﻿Matamoros,﻿México,25.847054875923668,-97.50931816035482,-97.5888210425121,25.78756720993401,-97.4181811313491,25.89701755644518
6726,﻿Tuxtla Gutiérrez,﻿México,16.755907635887663,-93.11750750768735,-93.20099068907135,16.719412050399946,-93.0295632882892,16.801642616946665
6745,﻿Bukavu,﻿Democratic Republic of the Congo,-2.5095417331875174,28.849694276168798,28.812332223907752,-2.5722130140883492,28.89274671084052,-2.4508531420344775
6766,﻿Islamabad,﻿Pakistan,33.623460358630034,73.05951931708393,72.84399097596,33.48524356222363,73.27340221812445,33.75402359080579
6776,﻿Asyut,﻿Egypt,27.183603749974974,31.17757898836965,31.03633451295313,27.12047124904979,31.30011722605186,27.247321024547567
6785,﻿Semarang,﻿Indonesia,-7.004980095668505,110.34393204098606,110.00721291636118,-7.229651437425967,110.59041480476964,-6.8808671289508405
6844,﻿Meishan,﻿China,30.043407235579018,103.84202023288218,103.76272066796803,29.9756233998623,103.91679528293024,30.12087957394672
6876,﻿St. Louis,﻿United States,38.67053625689975,-90.3058955651714,-90.46694949324439,38.52612851404413,-90.17574772941298,38.84594201160241
6897,﻿Mashhad,﻿Iran,36.344462404857744,59.52080891498616,59.2529167353687,36.21415505821356,59.708948086788354,36.45997660503923
6911,﻿Kerman,﻿Iran,30.27928695957622,57.058363625901784,56.96355040805939,30.240562992355063,57.15856534660794,30.3260848924675
6912,﻿Multan,﻿Pakistan,30.181601280853855,71.46397768488163,71.3339980498273,30.078148801254805,71.58453116945545,30.300425361525495
6913,﻿Surat,﻿India,21.174052818967983,72.76317638268186,72.61068434516261,21.073252587118795,72.91665403488621,21.264299799013603
6920,﻿Lokoja,﻿Nigeria,7.799188122217427,6.716443503532115,6.623264510711255,7.7165007264135115,6.763273172759825,7.870713765467704
6921,﻿Kalemie,﻿Democratic Republic of the Congo,-5.923236899960107,29.199659719082018,29.170659316698142,-6.021481591293855,29.240732966395083,-5.867497966555545
6937,﻿Ufa,﻿Russia,54.763201244252,56.02906869745461,55.88055146746187,54.67606849808982,56.16148098282929,54.85491872173765
6943,﻿Baoji,﻿China,34.360134291094994,107.22171348890512,107.06705874677431,34.30993463282523,107.43359565943413,34.414321653914556
6949,﻿Goma,﻿Democratic Republic of the Congo,-1.6455446921123758,29.202517615142103,29.122162004502954,-1.7065969732797688,29.262172374944726,-1.593351466917526
6955,﻿Hisar,﻿India,29.138710423403648,75.75539713968844,75.68347740039692,29.097239493614804,75.86093925379582,29.182393627630574
6958,﻿Surakarta,﻿Indonesia,-7.561168476832078,110.7852528664778,110.58177589245464,-7.651575386482813,110.99847136545596,-7.481164286701792
6961,﻿Florianópolis,﻿Brazil,-27.59336941752756,-48.613348949712844,-48.720919176477004,-27.687493812238927,-48.48719019265337,-27.475789092159353
6971,﻿Leshan,﻿China,29.587939694572995,103.7363770670865,103.64597688251297,29.53180656886451,103.814692792805,29.65122268869897
6998,﻿Jepara,﻿Indonesia,-6.678212703352188,110.7056484303225,110.62373584309965,-6.791659192036241,110.79114684752969,-6.564612825602641
7012,﻿Tampa,﻿United States,27.993831349525447,-82.48161152483968,-82.62122721171389,27.85696960683022,-82.33040031039141,28.11137192416873
7021,﻿Vadodara,﻿India,22.31320829257141,73.17953138500431,73.0963686815663,22.220972798323356,73.27400888383573,22.404268195112337
7047,﻿Patiala,﻿India,30.345058124684094,76.39915761623666,76.32582149900425,30.300425361525495,76.49698361342843,30.394522745817845
7050,﻿Kudus,﻿Indonesia,-6.79311534263556,110.85422034275993,110.78227480168408,-6.856537058659544,110.94068242263367,-6.718675594662274
7052,﻿Sorocaba,﻿Brazil,-23.49455982401145,-47.46831089525341,-47.5304163221042,-23.58124946978162,-47.39663540355742,-23.414062507892687
7057,﻿Yekaterinburg,﻿Russia,56.83375733605586,60.58700632488994,60.42970212261863,56.7205813297374,60.72312373823398,56.93331450308225
7078,﻿Campinas,﻿Brazil,-22.894302174003695,-47.13702146356719,-47.32720911051282,-23.01314000144986,-46.96246469598282,-22.754452070369044
7085,﻿Sargodha,﻿Pakistan,32.07024013908595,72.68027877263084,72.61283198260578,32.0167724172366,72.74973922481635,32.120132428880574
7092,﻿Onitsha,﻿Nigeria,6.057324701487232,6.94561674570784,6.7274359253585,5.8431862624540996,7.168118767415533,6.272754120401512
7093,﻿Suhaj,﻿Egypt,26.586319893121285,31.71015029137677,31.624879524779626,26.50390775621219,31.813911065010767,26.66426104878126
7131,﻿Owerri,﻿Nigeria,5.696134916856518,7.030168862963142,6.786950246075318,5.42184615543555,7.246392026494989,5.940435521707354
7151,﻿Chandigarh,﻿India,30.697246165648448,76.77276977112139,76.60939458873789,30.574258553003517,76.90813721208244,30.788394165757087
7168,﻿Miami,﻿United States,26.122406785365936,-80.21801452334738,-80.47913026776334,25.535135426879048,-80.01897200901377,26.88383060741735
7174,﻿Chelyabinsk,﻿Russia,55.15089346599889,61.40691395344414,61.22081210044787,55.034059572283255,61.5953784604393,55.22347107715028
7178,﻿Sylhet,﻿Bangladesh,24.893309604339564,91.8809760500813,91.80587452828142,24.846176042918735,91.962018307415,24.93011660379285
7181,﻿Minneapolis [Saint Paul],﻿United States,44.9736770168598,-93.24657562297241,-93.43735576795589,44.81350054163326,-92.98905826083856,45.136068576686
7192,﻿Chuxiong,﻿China,25.042756324767016,101.5505942633687,101.47302727345746,24.988887912196958,101.6105516182998,25.098062968449515
7209,﻿Port Harcourt,﻿Nigeria,4.841383391129177,6.998923523729014,6.899997351528609,4.733355572217889,7.109839408029099,4.952022321940252
7222,﻿Luxor,﻿Egypt,25.683963853314456,32.635414127973455,32.47399777437121,25.535135426879048,32.77421406768119,25.821240147355937
7248,﻿Tyumen,﻿Russia,57.1613151135503,65.55568566500293,65.42658415181792,57.07538242660861,65.67356982860034,57.24816045347173
7260,﻿Bahawalpur,﻿Pakistan,29.388675669055843,71.67865816771837,71.6144541916461,29.344260306723736,71.75636179296467,29.438017047992627
7275,﻿Tulungagung,﻿Indonesia,-8.088569962772658,111.96202172145799,111.8335205814285,-8.154848250455524,112.08978871204866,-8.00059439911678
7277,﻿São Paulo,﻿Brazil,-23.57640760944693,-46.59777372716653,-46.999079193369006,-23.815447446952682,-46.153166402799386,-23.372278339222465
7318,﻿Ziyang,﻿China,30.115862802492707,104.63741692445217,104.59408864781105,30.0696034848043,104.68669756902922,30.163617340997767
7336,﻿Omsk,﻿Russia,54.98738981578704,73.34066686070872,73.16964861314025,54.89470258592236,73.49715980525366,55.07390839852223
7358,﻿Novosibirsk,﻿Russia,55.01412753801687,82.93534987425261,82.76265718783078,54.92454992077058,83.14726599352542,55.14367880389627
7365,﻿São Luís,﻿Brazil,-2.5455014093231045,-44.239610608252036,-44.33868461076694,-2.653122040505703,-44.13815165745334,-2.475124772543877
7424,﻿Louisville,﻿United States,38.206116056817436,-85.68880645414224,-85.8556615174671,38.11825121311453,-85.50579149272858,38.286617985410146
7425,﻿Santos,﻿Brazil,-23.955923457891142,-46.33558088774156,-46.45912588663055,-24.016316411973065,-46.18921493140405,-23.874021975954626
7428,﻿Faisalabad,﻿Pakistan,31.419821135474734,73.07907977487986,72.91394440772288,31.311645858740416,73.2193887330014,31.517815588005163
7429,﻿Vapi,﻿India,20.408658966120942,72.92927556762453,72.86324023925008,20.309987930886624,73.00377225193586,20.533838329034474
7439,﻿Chattogram,﻿Bangladesh,22.413839333892778,91.80710855590073,91.61587821861856,22.19598505058306,91.95966160283521,22.687724225357393
7440,﻿Datong,﻿China,40.06473248057221,113.25882388686983,113.1161107822734,39.987482947478114,113.37844262519478,40.17544333757035
7447,﻿Ambala,﻿India,30.360932102175788,76.82109405298807,76.74168173304302,30.30897825621324,76.89570730800764,30.411635040775558
7459,﻿Surabaya,﻿Indonesia,-7.428235582808292,112.64968314870295,112.35826215208748,-7.757080999904025,112.83440052849629,-7.18908991970253
7468,﻿Malang,﻿Indonesia,-7.943334614169605,112.63257286826322,112.49458156236825,-8.098015256935714,112.74873090821836,-7.789546297516583
7470,﻿Sao Jose dos Campos,﻿Brazil,-23.236627723611562,-45.90411070357865,-46.02566316263909,-23.330499177066226,-45.77103082068932,-23.13002854026696
7499,﻿Krasnoyarsk,﻿Russia,56.04071702816542,92.870279812109,92.72386177115698,55.98445400598762,93.04914085879155,56.10510678982893
7516,﻿Kaduna,﻿Nigeria,10.50916691265904,7.4382910518902055,7.350539001971923,10.398384333439934,7.54064730037506,10.650736354389672
7529,﻿Kutubdia,﻿Bangladesh,21.777895453914432,91.94073395814694,91.82385654833061,21.613413016075732,92.10968068663652,21.9212309753782
7532,﻿Chicago,﻿United States,41.86867414125845,-87.78774094154439,-88.2185577851552,41.51476684174757,-87.3965788270907,42.201890635302235
7538,﻿Satkania,﻿Bangladesh,22.043781486531245,92.08328035896453,91.98459100520769,21.937876966726304,92.1605574564522,22.154342562719158
7544,﻿Shahkot,﻿Pakistan,31.523539496008365,73.36649395503649,73.24331080433863,31.46625709485588,73.50563220489431,31.586576972081257
7563,﻿Vasai-Virar,﻿India,19.41671710921025,72.82972634535643,72.77147998259751,19.3331040939428,72.89437462898393,19.48197338967409
7599,﻿Mumbai,﻿India,19.131292824984644,72.91472404477022,72.77228432630386,18.886804610868516,73.1174476536005,19.324835097893597
7611,﻿Milwaukee,﻿United States,43.02917173183652,-87.95839103277757,-88.10610638814175,42.89181519205963,-87.82891349291629,43.18316916096182
7638,﻿Sahiwal,﻿Pakistan,30.66473723907955,73.10742311493215,73.05494564947595,30.608508201628982,73.16852599959978,30.719851227258125
7646,﻿Gujrat,﻿Pakistan,32.57755903379741,74.07045872884774,74.02055907510189,32.53401672140195,74.12042191900474,32.628966258939094
7649,﻿Khabarovsk,﻿Russia,48.466493689703114,135.0909070057338,134.99745482481416,48.34430841956672,135.19788207526167,48.58975609446091
7652,﻿Teresina,﻿Brazil,-5.101951196155532,-42.788043461764495,-42.860432180814975,-5.203118379287935,-42.71906632199758,-5.016817733772077
7658,﻿Jember,﻿Indonesia,-8.186142823548,113.67969470138878,113.5670803376595,-8.227923789326304,113.76504008397147,-8.130490875848594
7676,﻿Belo Horizonte,﻿Brazil,-19.90098454109345,-44.009789122516736,-44.22647881480296,-20.053126392465536,-43.855520504918864,-19.73020504561929
7711,﻿Rohtak,﻿India,28.889861770147093,76.59879773814667,76.54009746719191,28.850442857900482,76.66317236011794,28.927011085285976
7712,﻿Suining,﻿China,30.518735822903064,105.58117196211562,105.5070040286565,30.454420743443638,105.63254131979767,30.582820536199872
7719,﻿Lüliang,﻿China,37.519469074513445,111.13252310375692,111.05576236988665,37.48154099315284,111.22023332188077,37.56101752900275
7735,﻿Columbus,﻿United States,40.019336982541006,-82.9423185588292,-83.11950197028413,39.89804607169284,-82.75328955196724,40.18439868411988
7739,﻿Kalyan-Dombivli,﻿India,19.207558937936994,73.1692745948286,73.063638961631,19.12642686444007,73.29228404406732,19.27522446857725
7767,﻿Panvel,﻿India,19.035090918298657,73.1055716428575,73.05524129058479,18.95289417172431,73.1536677010039,19.101632241100603
7774,﻿Yamunanagar,﻿India,30.139998554113827,77.28962697946754,77.22586570429169,30.095240271907045,77.34437899845074,30.189263364366894
7784,﻿Detroit,﻿United States,42.41064710721333,-83.12410840763324,-83.43274075860076,42.174714808513286,-82.84984764323549,42.637301014885246
7788,﻿Panipat,﻿India,29.391054824429883,76.97064697835164,76.9102863875251,29.327217136903354,77.0326603689528,29.45506724573167
7790,﻿Banjarmasin,﻿Indonesia,-3.3156924613658414,114.60059073282902,114.5394895403458,-3.381402005836555,114.66686046305868,-3.2438233326945767
7794,﻿Lahore,﻿Pakistan,31.527297344132506,74.28129135043906,73.90572852291967,31.29447276046033,74.5144220661546,31.758564443201827
7799,﻿Rio de Janeiro,﻿Brazil,-22.838861580100847,-43.392610025322924,-43.732564620972816,-23.021487902899068,-43.12864679788447,-22.579317810657155
7806,﻿Juiz de Fora,﻿Brazil,-21.747473209922894,-43.36809869965539,-43.44979410528172,-21.81305005451879,-43.281587900724595,-21.67162960283539
7807,﻿Zaria,﻿Nigeria,11.091552081765103,7.709181629486493,7.660838334734586,11.033487797616914,7.7627042446717205,11.155682344706777
7829,﻿Sialkot,﻿Pakistan,32.49980716949484,74.52490876364027,74.40205564863804,32.40460106984638,74.62172825942683,32.59443476283307
7833,﻿Cleveland,﻿United States,41.47565867408103,-81.66260916897896,-81.88045625386036,41.37045792985627,-81.48347397679112,41.61404895515989
7882,﻿Norfolk,﻿United States,36.844399230285724,-76.21972292216716,-76.37141551786877,36.73247838007931,-76.0511571378388,36.97011498249339
7890,﻿Niterói,﻿Brazil,-22.830688413137455,-43.005446139899966,-43.14635055165309,-22.938017718942795,-42.80614003395492,-22.712745716870018
7910,﻿Washington,﻿United States,38.92411725067897,-77.12395430127847,-77.47233374827937,38.69485217924069,-76.81628024129986,39.21974056011045
7915,﻿Xianyang,﻿China,34.3465473523247,108.67036293868891,108.55744348999838,34.283845522490964,108.79621780492613,34.42302278553506
7929,﻿Bazhong City,﻿China,31.860825422852685,106.78537495088,106.70965054317169,31.82739319680658,106.85731962896914,31.904848720746614
7943,﻿Shunqing,﻿China,30.802808072234733,106.08299644368232,106.02487661611046,30.73698523318214,106.14191857060759,30.89124323057981
7958,﻿Samarinda,﻿Indonesia,-0.49749788449028914,117.15271196255775,117.07226353215236,-0.5904045757027228,117.23260300785661,-0.4124729978300385
7959,﻿Baltimore,﻿United States,39.32065499390432,-76.62469932420805,-76.82746118094742,39.210831960922434,-76.44664166509958,39.42475559656316
7961,﻿Uyo,﻿Nigeria,4.995618733379343,7.901731431362221,7.820055069719811,4.822438761324284,8.02133035479724,5.114015481326497
7963,﻿New Delhi,﻿India,28.596939186757194,77.22737874432603,76.8590500823538,28.298078904066127,77.70317932854128,28.892978122593842
7999,﻿Zhangjiakou,﻿China,40.78256539557748,114.87191126014652,114.76374464378611,40.713553422796544,114.93733351432924,40.85732333597891
8006,﻿Xi'an,﻿China,34.261179897700764,108.91450330137589,108.67677568893414,34.10999590918447,109.10634193157546,34.42302278553506
8012,﻿Nashik,﻿India,19.980105245271428,73.79120542660309,73.69725292039836,19.870934795079865,73.86721785017838,20.061409737469845
8013,﻿Kunming,﻿China,25.03153038692592,102.7319161997643,102.6069145321975,24.921721571998592,102.85514543748796,25.173667371703605
8029,﻿Philadelphia,﻿United States,39.97035561752969,-75.14742824829156,-75.38493852154029,39.79971594663387,-74.93606294470612,40.139626372198876
8035,﻿Makassar,﻿Indonesia,-5.1722472316585515,119.45444608244597,119.366088494988,-5.316529068672183,119.5725975317347,-5.049216361629939
8039,﻿Kasur,﻿Pakistan,31.116852000853264,74.45015520227149,74.39949477570379,31.079908470095067,74.48892889330078,31.15713045186437
8047,﻿Rasoi,﻿India,28.832998010851682,77.09081247585189,77.01705765745061,28.756888439608357,77.15369057896908,28.918502448272843
8099,﻿New York City,﻿United States,40.73149428304786,-73.93943152800274,-74.65607522538154,40.44429692538962,-73.16274710856086,41.01920409932211
8100,﻿Vitória,﻿Brazil,-20.328554825414134,-40.34901961813941,-40.45572869566485,-20.40117127397394,-40.2607959608238,-20.243685626423908
8125,﻿Kano,﻿Nigeria,11.987960850078998,8.521562850805909,8.374165677373867,11.8403415588606,8.638574280424772,12.125807696533306
8143,﻿Calabar,﻿Nigeria,4.99641686189328,8.341129946718763,8.300492808660008,4.911526426446147,8.381519252794877,5.0897155187798875
8154,﻿Fortaleza,﻿Brazil,-3.786220688200273,-38.559260448825725,-38.67494721383944,-3.915604629791249,-38.43516453930259,-3.6808642054201743
8169,﻿Yuxi,﻿China,24.368468688551317,102.52950282742788,102.47261690136665,24.301085335815454,102.58868863239648,24.43517812191932
8234,﻿Kota,﻿India,25.168715785042266,75.85993564440307,75.78676201986646,25.098062968449515,75.92940080995467,25.24928958508893
8238,﻿Salvador,﻿Brazil,-12.923667420665488,-38.42279033647819,-38.53976910674285,-13.023761622590705,-38.27234104738159,-12.819575070051938
8242,﻿Gorontalo,﻿Indonesia,0.5620108449965914,123.07022751622408,123.0194729822601,0.4933507593063221,123.1689409796923,0.6389317206451655
8252,﻿Muzaffarnagar,﻿India,29.469063088633757,77.71497055366002,77.66389818467364,29.420967933875435,77.78207591509744,29.53180656886451
8255,﻿Boston,﻿United States,42.35063667666909,-71.08744270818121,-71.27156204302462,42.19283154179223,-70.91470349301932,42.53741963942718
8258,﻿Pune,﻿India,18.556070720506543,73.8528099222866,73.7002231637221,18.41620189543934,74.01699187936937,18.713366711478162
8294,﻿Haridwar,﻿India,29.934928496843366,78.09647366709274,78.02060827459933,29.87313801178576,78.20667662728741,30.00979407820009
8305,﻿Meerut,﻿India,28.989946199282564,77.69903980417882,77.60095171422564,28.90148596703399,77.8181628567539,29.097239493614804
8313,﻿Aracaju,﻿Brazil,-10.917432128968063,-37.06858088897647,-37.113168456430174,-11.009051227475034,-37.02235319919584,-10.821729821426203
8326,﻿Taiyuan,﻿China,37.849637183549156,112.5446100930799,112.40311975326529,37.68471102363087,112.6501765785142,38.003136801264
8353,﻿Maceió,﻿Brazil,-9.599166519370616,-35.75081874422736,-35.82984044596549,-9.690580905127282,-35.69158015420326,-9.519818976380218
8355,﻿Malegaon,﻿India,20.55583543112929,74.53030050958083,74.48914992567506,20.51725255648696,74.57479218968321,20.591893931666856
8363,﻿Natal,﻿Brazil,-5.808885138105497,-35.23207053565136,-35.31301628053003,-5.899914203880362,-35.16569649928737,-5.713530627120011
8388,﻿Recife,﻿Brazil,-8.037746995053782,-34.92451357245943,-35.06290782437268,-8.236043611252889,-34.816052936361814,-7.805779307344024
8403,﻿João Pessoa,﻿Brazil,-7.143903369149171,-34.88424763447535,-34.991260836348125,-7.221539022560166,-34.809264379167566,-7.05930234237825
8419,﻿Guang'an,﻿China,30.48000250218289,106.62022963537329,106.54378683725281,30.43730561061806,106.70495290680068,30.548574317652715
8422,﻿Dhule,﻿India,20.893189645652434,74.76928020748218,74.73597959564368,20.83250000564563,74.80097715908909,20.9487069740714
8427,﻿Qiqihar,﻿China,47.33695917049882,123.97324337895004,123.88691569861379,47.263840791479744,124.07486573240278,47.394933971331845
8481,﻿Bulandshahr,﻿India,28.404503047569165,77.85179264538496,77.81534380439665,28.374494759092173,77.89484783733202,28.425450245409305
8485,﻿Qujing,﻿China,25.493521927703284,103.80472741060218,103.73524987082375,25.40899527633143,103.85671605774462,25.577193324951004
8499,﻿Ujjain,﻿India,23.173394380611477,75.79734113149149,75.75139573683262,23.13002854026696,75.85186330260382,23.21354406343746
8512,﻿Beibei,﻿China,29.805222648363756,106.40423464764206,106.31393143397767,29.71948453343515,106.48086298159267,29.87313801178576
8536,﻿Dazhou,﻿China,31.21081270384049,107.48837875712984,107.42356560731774,31.15713045186437,107.54448857310577,31.260130109348367
8543,﻿Yola,﻿Nigeria,9.238920162890595,12.449988655544255,12.362516064759694,9.170264822192962,12.522211374491476,9.292187094201887
8556,﻿Mathura,﻿India,27.46985316292446,77.67234999808232,77.6068762427127,27.365763635745086,77.72547370044079,27.55198495681112
8557,﻿Chongqing,﻿China,29.558331025786377,106.50952021555939,106.3315131630967,29.35278229613581,106.6857507671547,29.79630011354906
8564,﻿Maiduguri,﻿Nigeria,11.838189576591121,13.153551579877348,13.062825803413078,11.775108264607553,13.256881773040181,11.897425574948704
8584,﻿Linfen,﻿China,36.083465605939246,111.49718866293158,111.39156424417021,36.00368182987133,111.60792487805278,36.16151685429864
8616,﻿Kolhapur,﻿India,16.69140175156395,74.24377722228897,74.17594726655078,16.653637340790198,74.3233590101485,16.752302649509026
8626,﻿Aligarh,﻿India,27.899922991446026,78.07881556365191,78.00901647176505,27.831541853311077,78.17186399531538,27.95870325272829
8635,﻿Ankang,﻿China,32.707467453951104,109.01389329339273,108.8644426808862,32.66350278391001,109.13057682545994,32.758504222832926
8645,﻿Bijie,﻿China,27.295259259185805,105.30490149991176,105.24919570104097,27.26423846535358,105.37301278936138,27.331917997262135
8648,﻿Jalgaon,﻿India,21.00084483811202,75.55890568885926,75.49028570754653,20.965310770037288,75.61781717924298,21.031732981533153
8660,﻿Agra,﻿India,27.17803908824136,77.99533447424396,77.85762106786794,27.086653863807495,78.0854412780432,27.25577962299345
8666,﻿Moradabad,﻿India,28.835406670961465,78.74333596077321,78.62752530221,28.765392073258425,78.84246228236718,28.90148596703399
8685,﻿Yuncheng,﻿China,35.05834692245956,111.0054684064782,110.93672687483955,34.98933425060906,111.07932760214592,35.12895933871018
8694,﻿Sangli,﻿India,16.856766228571395,74.6108012599569,74.52946090043153,16.809866420498995,74.69549487104294,16.916788278707248
8745,﻿Beijing,﻿China,39.96284454855336,116.40415042196469,116.04256437109225,39.65678416805226,116.7644208304312,40.24709850834197
8758,﻿Rampur,﻿India,28.79068667607431,79.03145298325236,78.99733496087313,28.74838506822499,79.06911335154821,28.833430596861664
8789,﻿Shijiazhuang,﻿China,38.03277242295709,114.51469980639885,114.28420009663708,37.91463338557709,114.75018177378202,38.1359671598622
8797,﻿Chifeng,﻿China,42.27432209374463,118.92815717164677,118.83775111723591,42.210950213659395,119.05315910296225,42.32876894463419
8853,﻿Baoding,﻿China,38.85522975531402,115.48049483948569,115.36349622994874,38.74816430898715,115.58232867012667,38.93487455961863
8860,﻿Bareilly,﻿India,28.37057947917018,79.42578765191453,79.33174308870029,28.289589537704646,79.511160138757,28.450931471973433
8903,﻿Chengde,﻿China,40.981507237899045,117.92634893620651,117.86318008897373,40.911267116519795,118.00212124153924,41.05519778089485
8934,﻿Mangaluru,﻿India,12.903125335627292,74.84882216335615,74.77637797489302,12.762414221305237,74.93310841188878,13.023761622590705
8945,﻿Honghuagang,﻿China,27.687502785318763,106.93770370609212,106.85871594047116,27.61126226128512,107.05517671128543,27.738326051080392
8975,﻿Langfang,﻿China,39.53876869049579,116.7253904270547,116.59793378664043,39.46043341299942,116.8441562744248,39.6121407019658
9002,﻿Akola,﻿India,20.69571613030235,77.02203664216353,76.96499224110565,20.6582535028984,77.08454618286868,20.741218495000325
9010,﻿Farrukhabad,﻿India,27.372247502284186,79.5974923456575,79.52790680251773,27.323457199953015,79.6454359805349,27.408076202247273
9019,﻿Guiyang,﻿China,26.597474865525378,106.680936624257,106.53398204296211,26.470160003410083,106.84037151576173,26.73180377353255
9025,﻿Luoyang,﻿China,34.667518251559564,112.42881670680971,112.25908204864812,34.56228737557135,112.61850365186912,34.76263432907867
9028,﻿Shahjahanpur,﻿India,27.864242987387623,79.91392686970174,79.81971880303797,27.80611635740548,79.98596586008887,27.924788007937604
9107,﻿Handan,﻿China,36.60037155249005,114.4947235978888,114.35251894378932,36.52147768575923,114.64168561196693,36.67970783910776
9108,﻿Kannur,﻿India,11.889405567376059,75.37367065013802,75.30852938435494,11.82403267839026,75.43162253614187,11.962670062963067
9127,﻿Tianjin,﻿China,39.12306432432909,117.19428120454991,116.9677574825084,38.95266608202208,117.38869714335695,39.26428991324648
9141,﻿Hengshui,﻿China,37.72839007914974,115.67776208161136,115.57769578169318,37.66703579115403,115.78793678837651,37.773110927729725
9150,﻿Thalassery,﻿India,11.753480137148768,75.51229975982196,75.43062929656107,11.677269412589766,75.57121801715499,11.815878377551332
9151,﻿Enshi,﻿China,30.283461570292967,109.471332441921,109.41002740348681,30.214911913804936,109.52616298863786,30.33463863426046
9174,﻿Nanded,﻿India,19.15089374533246,77.31741873130035,77.27402788460076,19.09336768152061,77.35745154255767,19.209085865958688
9191,﻿Anyang,﻿China,36.09461952079924,114.35358911128395,114.22811099645618,36.021213176545295,114.48210137904647,36.170288964824074
9215,﻿Fengrun,﻿China,39.81699829744909,118.14369260339778,118.00445421795116,39.7461035236401,118.23308043431972,39.880163943226464
9229,﻿Tangshan,﻿China,39.643344974095484,118.18342170122376,117.88170111320267,39.49611808080021,118.50655816820395,39.7550378420337
9230,﻿Kozhikode,﻿India,11.147554812814741,75.98287529664633,75.72709433300427,10.903168362093254,76.28972767731618,11.351234607067875
9241,﻿Xinxiang,﻿China,35.30335881697468,113.88520382495481,113.7785116490459,35.24247108921935,113.97497615260049,35.356042670788796
9244,﻿Kanpur,﻿India,26.464462975011244,80.3420256361259,80.15110646871626,26.377373023869705,80.55898148046465,26.57985396025424
9251,﻿Binhai New Area,﻿China,39.001952159461425,117.63129389834619,117.32450092747742,38.890403068827396,117.8378539546064,39.08615595367877
9277,﻿Zhengzhou,﻿China,34.75255649253441,113.67884599082944,113.45691373229793,34.57970161704967,113.93725920441065,34.893394011110104
9281,﻿Cangzhou,﻿China,38.30139206934775,116.85494168930249,116.74470350467551,38.242296770486156,116.96320638470932,38.3841604271672
9298,﻿Ponnani,﻿India,10.570390587039812,76.06651485690044,75.90996847680739,10.154246992324634,76.29333369694477,10.927601584622648
9329,﻿Dengzhou,﻿China,32.748713041359785,112.10062296359852,111.9695502313849,32.628966258939094,112.22000019479606,32.862185794524365
9346,﻿Lucknow,﻿India,26.855726069560095,80.96947832812154,80.81044784480416,26.706473471594,81.23308988217185,27.027482749026493
9352,﻿Thrissur,﻿India,10.535946728897663,76.20614109897518,76.10919986365155,10.422802055959071,76.29714872415923,10.650736354389672
9386,﻿Kochi,﻿India,9.994591106242526,76.3366587405483,76.17577252991153,9.60113007080863,76.52719423329323,10.357689751772574
9387,﻿Nanyang,﻿China,32.98851120660038,112.543168111329,112.46016764853441,32.914043721728184,112.641774275743,33.06103686093294
9405,﻿Puyang,﻿China,35.75878864944743,115.02998123309382,114.93481250166126,35.688367102857406,115.13235726513022,35.82844878510174
9409,﻿Pingdingshan,﻿China,33.73943854961129,113.3007778325436,113.19398410631815,33.693303669758365,113.41770973949596,33.78005137494015
9420,﻿Alappuzha,﻿India,9.49144386496006,76.33676889345455,76.29606496715033,9.34096053985755,76.37438094730605,9.60113007080863
9429,﻿Xuchang,﻿China,34.132919100682905,113.7985978732779,113.6329931815487,33.97101312491819,113.94234020384151,34.283845522490964
9431,﻿Kaifeng,﻿China,34.806158998446975,114.32988242071853,114.18893274245062,34.73649176074262,114.48589380101872,34.893394011110104
9435,﻿Fuxin,﻿China,42.01791106823305,121.66668074224303,121.53829893509018,41.939372961779455,121.81031721808823,42.111321485338195
9444,﻿Bahraich,﻿India,27.569102176189556,81.60799905764722,81.55936152328816,27.526584111752136,81.66298569507275,27.619731439535737
9445,﻿Harbin,﻿China,45.718919100454336,126.64311650954801,126.4042252945777,45.57030256017027,126.85241796393174,45.84812563703081
9455,﻿Xiangyang,﻿China,32.069966558094116,112.14343348335949,112.03747257916939,31.990939297964744,112.24277986873042,32.15459558081142
9464,﻿Kollam,﻿India,9.008891036310706,76.58745376714734,76.42263057625281,8.715228171414909,76.76039515429129,9.316573491202746
9466,﻿Jabalpur,﻿India,23.175345727131145,79.93676618796967,79.851861078615,23.104977742438315,80.02807598297153,23.26366290351878
9472,﻿Kottayam,﻿India,9.524928375880442,76.5472022490267,76.48173706408166,9.34096053985755,76.60578797691849,9.698713250381948
9481,﻿Liaocheng,﻿China,36.469981346049444,115.9885151760112,115.88559745027001,36.416058486035936,116.09939988285025,36.53905279665074
9489,﻿Qinhuangdao,﻿China,39.9389435078072,119.58957611662132,119.43336327930088,39.88910478917116,119.71177266590695,39.987482947478114
9495,﻿Yichang,﻿China,30.70444305155515,111.3260737171434,111.24333210060985,30.61707132910033,111.40981067609812,30.805532784623335
9521,﻿Jinzhou,﻿China,41.11772897867638,121.13683605475359,120.96185825511054,41.03720002040425,121.25455149531973,41.18123373406262
9524,﻿Hyderabad,﻿India,17.42902245104652,78.46543054859093,78.2547608680348,17.262387277604184,78.65417762077813,17.591759059933363
9558,﻿Bengaluru,﻿India,13.008279826997324,77.58237486852057,77.36213457103224,12.762414221305237,77.79626836426662,13.211670066491173
9571,﻿Luohe,﻿China,33.576847850809926,114.01348464303916,113.88180056460281,33.50257468878157,114.16828739311448,33.64994219964758
9576,﻿Satna,﻿India,24.574191361047028,80.83484243377261,80.77847403922041,24.535783258626797,80.8842881262511,24.602870365089085
9603,﻿Jinan,﻿China,36.66142016557898,117.01446582783875,116.68195295192004,36.468761350387105,117.25170174682057,36.82045959148905
9612,﻿Thiruvananthapuram,﻿India,8.527318917161525,76.95892290158261,76.82937082002465,8.406574699457007,77.06342959515891,8.658363725991956
9620,﻿Tiruppur,﻿India,11.116634283998643,77.33888340418407,77.24803903576208,11.025342187953806,77.41638984010395,11.212713180977302
9633,﻿Yingkou,﻿China,27.547552226148166,109.95536909440271,109.8975765914466,27.51811765785159,110.01011975103008,27.585856215195946
9637,﻿Changchun,﻿China,43.86691555544864,125.2939630409989,125.11278983438106,43.76744189007889,125.48008656584607,43.987091152311415
9658,﻿Faizabad,﻿India,26.76649557980374,82.15111433583097,82.07449514856545,26.706473471594,82.22570061608604,26.816253579973885
9676,﻿Colachel,﻿India,8.276537088078697,77.21613979042189,77.0777120977152,8.162967501463466,77.34296570714463,8.382211371255819
9692,﻿Sultanpur,﻿India,26.244724966395623,82.06124943689802,81.98911114013075,26.166598432487802,82.11348887978696,26.309909343988025
9693,﻿Binzhou,﻿China,37.38262327203017,117.98321253231325,117.85651399421326,37.340327636084496,118.10701147438733,37.437401077981846
9701,﻿Panjin,﻿China,41.127607727381296,122.07059111505843,121.99238466763398,41.064197351387406,122.13659516435965,41.18123373406262
9703,﻿Zhoukou,﻿China,33.60611653898691,114.63788595035523,114.5610958068536,33.52857383237052,114.7046559743878,33.67595809268155
9714,﻿Prayagraj,﻿India,25.437895816807387,81.82579612232723,81.69534944446572,25.34174102138912,81.90789775593703,25.509903376087912
9715,﻿Jingzhou,﻿China,30.325424981986988,112.23615525806451,112.13673121889167,30.274768369861867,112.34188144454485,30.38596702347928
9716,﻿Erode,﻿India,11.37012075296303,77.71168346724448,77.64551243208203,11.29419327696544,77.81447723425663,11.465330371961493
9757,﻿Dongying,﻿China,37.48519648341915,118.49902628650142,118.36964010322808,37.38444607762032,118.60155672302528,37.605184910491054
9761,﻿Shangqiu,﻿China,34.41869818254567,115.63759807108616,115.52854574554088,34.32732906968585,115.74587638521744,34.527463010929566
9774,﻿Jhusi,﻿India,25.40115100967665,82.11812507418956,81.89018540050503,25.324929677160142,82.27977172421538,25.4678544299546
9779,﻿Shenyang,﻿China,41.80087467786976,123.39443847083031,123.12711287607473,41.63210637761157,123.63073876110947,41.95746463839028
9781,﻿Jining,﻿China,35.420381021965554,116.61501196435827,116.51957101318713,35.36478143333236,116.73888149858614,35.478417793134966
9793,﻿Changde,﻿China,29.03296266126725,111.68708365445978,111.58648225862943,28.978068463636504,111.76448207252665,29.088725548065664
9800,﻿Salem,﻿India,11.660677669420846,78.12935502931131,77.99460517289745,11.58759539979756,78.25153532207622,11.726187180883173
9801,﻿Zibo,﻿China,36.71398109626525,117.99561986039818,117.80571801335732,36.45997660503923,118.13509002657054,36.91728284033294
9823,﻿Jiamusi,﻿China,46.80205262175976,130.36968035846436,130.1778910950537,46.74998851511273,130.49229855941704,46.852612715361886
9843,﻿Nanning,﻿China,22.82547692660779,108.30538907361098,108.18799985978116,22.74611041249894,108.40836339004842,22.921326033106066
9845,﻿Yingkou,﻿China,40.67306189066603,122.24889380718683,122.16448710848792,40.623756185833145,122.32576230805327,40.73151830220779
9860,﻿Gyanpur,﻿India,25.312060395766714,82.4104414534133,82.20186369230784,25.207275041466595,82.69382578396026,25.43421929088161
9879,﻿Fushun,﻿China,41.87071187600498,123.86618855484492,123.67798161582054,41.812784794845946,124.00443277197873,41.92128320150934
9880,﻿Madurai,﻿India,9.92015890933718,78.11271967274853,78.00756817724687,9.836974723235453,78.20675628606735,9.99966364897095
9899,﻿Liaoyang,﻿China,41.24508360691776,123.18351622099786,123.10476515376507,41.18123373406262,123.26601739157024,41.30736040909494
9908,﻿Jaunpur,﻿India,25.75728454981382,82.67824441561459,82.60782674598018,25.711816359473875,82.72881502018593,25.821240147355937
9909,﻿Bozhou,﻿China,33.85697139868168,115.7737103921629,115.70559929222118,33.78872796538795,115.84299323921702,33.91891666594737
9921,﻿Jilin City,﻿China,43.851874820795054,126.55351837906686,126.46994875540977,43.7765879315476,126.64106707130766,43.932150543134725
9934,﻿Mirzapur,﻿India,25.145782341557606,82.57326789546939,82.47091564936399,25.08966357561774,82.6513188152189,25.215677509307056
9939,﻿Liuzhou,﻿China,24.31439508761195,109.38807142129907,109.28293379926698,24.225681820537552,109.4849237752494,24.41841356738368
9968,﻿Gorakhpur,﻿India,26.762569833013476,83.38737936867979,83.31128208021592,26.698030512586758,83.45724136316025,26.84159317221488
9978,﻿Tiruchirappalli,﻿India,10.791658737333846,78.71608129007042,78.62004406918948,10.699587858239209,78.83540247790695,10.870591925956752
9981,﻿Tengzhou,﻿China,35.08190745218158,117.16158153350955,117.04841417008276,34.99805818776806,117.26133661427141,35.146418802913864
9984,﻿Azamgarh,﻿India,26.067038626938118,83.18257131645952,83.11637977044839,26.00650644403739,83.25174483365483,26.12446089886137
9996,﻿Durg,﻿India,21.20564005363072,81.37036549837526,81.24981698730609,21.139693143663578,81.53305003934844,21.264299799013603
10006,﻿Vellore,﻿India,12.932526387233361,79.13812184125133,79.06629671876836,12.860407283746085,79.23649298569114,12.999255859478673
10008,﻿Varanasi,﻿India,25.30842235900667,83.0207921054927,82.89201108832954,25.1820689590925,83.20002474473738,25.451036414434718
